place_id,name,category,sub_category,latitude,longitude,address,vicinity,rating,review_count,website,phone,price_level,type,is_operational,search_zone,search_keyword,is_open_now,timestamp
ChIJu19lbADxaS4RBCwFH3AjPX4,Loading dock ranch market district 8,Affluence_Proxy,Premium_Supermarket,-6.2282042,106.8070892,"District 8 SCBD, PROSPERITY TOWER, F No.18, Senayan, Kec. Kby. Baru, Kota Jakarta Selatan, Daerah Khusus Ibukota Jakarta 12190, Indonesia","District 8 SCBD, PROSPERITY TOWER, F No.18, Senayan, Kota Jakarta Selatan",,0,,,,,True,Kemang_Demo,Ranch Market,,2025-08-05T01:31:51.766669
ChIJHyK2lFzxaS4RJMDSGF1AdcM,Sixhill Partner PODS AUTHENTIC - Sudirman (Gedung Astha Ranch Market),Affluence_Proxy,Premium_Supermarket,-6.2287255,106.8068933,"SCBD, District 8, Jl. Jend. Sudirman kav 52-53, RT.8/RW.3, Senayan, Kec. Kby. Baru, Kota Jakarta Selatan, Daerah Khusus Ibukota Jakarta 12190, Indonesia","SCBD, District 8, Jl. Jend. Sudirman kav 52-53, RT.8/RW.3, Senayan, Kota Jakarta Selatan",,0,,,,,True,Kemang_Demo,Ranch Market,False,2025-08-05T01:31:52.255868
ChIJs7RxMgDzaS4Rk62psqz63fI,Ranch Market Lotte Mall,Affluence_Proxy,Premium_Supermarket,-6.223853699999999,106.8231817,"Jl. Prof. DR. Satrio No.18, RT.18/RW.4, Kuningan, Karet Kuningan, Kecamatan Setiabudi, Kota Jakarta Selatan, Daerah Khusus Ibukota Jakarta 12940, Indonesia","Jl. Prof. DR. Satrio No.18, RT.18/RW.4, Kuningan, Karet Kuningan, Kota Jakarta Selatan",5,2,,,,,True,Kemang_Demo,Ranch Market,,2025-08-05T01:31:50.286552
ChIJx3YbYwDxaS4RTfRm_lpNrX0,Heirloom Greek Yogurt - Kemang (Ranch Market),Affluence_Proxy,Premium_Supermarket,-6.264253699999999,106.815586,"Jl. Kemang Raya No.66 68, RT.8/RW.2, Bangka, Kec. Mampang Prpt., Kota Jakarta Selatan, Daerah Khusus Ibukota Jakarta 12730, Indonesia","Ranch Market Kemang, Jl. Kemang Raya No.66 68, RT.8/RW.2, Bangka, Kota Jakarta Selatan",5,1,,,,,True,Kemang_Demo,Ranch Market,False,2025-08-05T01:31:50.957306
ChIJ44eO6WbxaS4RE1j7jLLIo_s,Vinyard Ranch Market Kemang,Affluence_Proxy,Premium_Supermarket,-6.264244499999999,106.8155793,"Jl. Kemang Raya No.66, RT.8/RW.2, Bangka, Kec. Mampang Prpt., Kota Jakarta Selatan, Daerah Khusus Ibukota Jakarta 12730, Indonesia","Ranch Market Kemang, Jl. Kemang Raya No.66, RT.8/RW.2, Bangka, Kota Jakarta Selatan",4.7,23,http://vinyard.com/,0811-8568-877,,,True,Kemang_Demo,Ranch Market,False,2025-08-05T01:31:52.106685
ChIJj-YZ0hTtaS4R_7gdLbrH-e4,De Entrance Arkadia,Affluence_Proxy,Premium_Supermarket,-6.3003864,106.8336377,"Arkadia Green Park, Jl. TB Simatupang No.Kav. 88, Kebagusan, Ps. Minggu, Kota Jakarta Selatan, Daerah Khusus Ibukota Jakarta 12520, Indonesia","Arkadia Green Park, Perkantoran Hijau Arkadia, Jl. TB Simatupang No.Kav. 88, Kebagusan, Kota Jakarta Selatan",4.6,3581,http://www.deentrancearkadia.com/,(021) 7827610,$$,,True,Kemang_Demo,Ranch Market,False,2025-08-05T01:31:51.935961
ChIJVTz5Zh_uaS4RTB35HRQxsG8,Farmers Market - One Belpark Mall,Affluence_Proxy,Premium_Supermarket,-6.304399699999999,106.7949254,"LG Floor No.1 Pondok Labu, Cilandak, Jl. RS. Fatmawati Raya, RT.1/RW.1, Pd. Labu, Kec. Cilandak, Kota Jakarta Selatan, Daerah Khusus Ibukota Jakarta 12450, Indonesia","LG Floor No.1 Pondok Labu, Cilandak, Jl. RS. Fatmawati Raya, RT.1/RW.1, Pd. Labu, Kota Jakarta Selatan",4.6,933,,0813-8950-2307,,,True,Kemang_Demo,Ranch Market,False,2025-08-05T01:31:52.443795
ChIJT4AQHFHxaS4RX4nom-4-Lm0,Kem Chicks Pacific Place,Affluence_Proxy,Premium_Supermarket,-6.2244806,106.8096616,"Pacific Place Lt. LG-99 SCBD Lot 3&5, Jalan Jend. Sudirman No.52-53, Senayan, Kebayoran Baru, RT.5/RW.3, Senayan, Kec. Kby. Baru, Kota Jakarta Selatan, Daerah Khusus Ibukota Jakarta 12190, Indonesia","Pacific Place Lt. LG-99 SCBD Lot 3&5, Jalan Jend. Sudirman No.52-53, Senayan, Kebayoran Baru, RT.5/RW.3, Senayan, Kota Jakarta Selatan",4.6,2973,,(021) 57973435,,,True,Kemang_Demo,Ranch Market,False,2025-08-05T01:31:52.617617
ChIJSzwo16r2aS4RU61M1tjQ_E4,GrandLucky Superstore SCBD,Affluence_Proxy,Premium_Supermarket,-6.226909999999999,106.8059153,"Kawasan Niaga Terpadu Sudirman (SCBD, Jl. Jenderal Sudirman LOT-12, Senayan, Kec. Kby. Baru, Kota Jakarta Selatan, Daerah Khusus Ibukota Jakarta 12190, Indonesia","Kawasan Niaga Terpadu Sudirman (SCBD, Jl. Jenderal Sudirman LOT-12, Senayan, Kota Jakarta Selatan",4.6,15874,http://www.grandlucky.co.id/,0851-8311-8632,,,True,Kemang_Demo,Ranch Market,False,2025-08-05T01:31:52.968365
ChIJ91zqR3HxaS4RHn78X_ccfyI,Ranch Market - Dharmawangsa Square,Affluence_Proxy,Premium_Supermarket,-6.252685,106.8014196,"Jl. Dharmawangsa VI Melawai Kebayoran Baru Jakarta Selatan DKI Jakarta RT.5, 5, RT.5/RW.1, Pulo, Kec. Kby. Baru, Kota Jakarta Selatan, Daerah Khusus Ibukota Jakarta 12160, Indonesia","Jl. Dharmawangsa VI Melawai Kebayoran Baru Jakarta Selatan DKI Jakarta RT.5, 5, RT.5/RW.1, Pulo, Kota Jakarta Selatan",4.5,1037,http://www.ranchmarket.co.id/,(021) 72786480,,,True,Kemang_Demo,Ranch Market,False,2025-08-05T01:31:50.119143
ChIJewaZxa7xaS4RBBClcpcbgYo,Ranch Market Kemang,Affluence_Proxy,Premium_Supermarket,-6.264198299999999,106.8159772,"Jl. Kemang Raya No.66 68, RT.8/RW.2, Bangka, Kec. Mampang Prpt., Kota Jakarta Selatan, Daerah Khusus Ibukota Jakarta 12730, Indonesia","Jl. Kemang Raya No.66 68, RT.8/RW.2, Bangka, South Jakarta City",4.5,694,https://www.ranchmarket.co.id/,0813-8221-7182,,,True,Kemang_Demo,Ranch Market,False,2025-08-05T01:31:50.626153
ChIJNU2ESdrxaS4RJlP8BCSqcdA,Ranch Market PIM 3,Affluence_Proxy,Premium_Supermarket,-6.2637493,106.7827455,"Jl. Sultan Iskandar Muda, RT.1/RW.16, Pd. Pinang, Kec. Kby. Lama, Kota Jakarta Selatan, Daerah Khusus Ibukota Jakarta 12310, Indonesia","Pd. Indah Mall 3, Jl. Sultan Iskandar Muda, RT.1/RW.16, Pd. Pinang, Kota Jakarta Selatan",4.5,180,http://www.ranchmarket.co.id/,0821-2507-4549,,,True,Kemang_Demo,Ranch Market,False,2025-08-05T01:31:50.795036
ChIJzar-vc3xaS4RGa_EshsI1TI,The Gourmet by Ranch Market,Affluence_Proxy,Premium_Supermarket,-6.2292324,106.8067785,"ASHTA Lantai Dasar Unit LG-01, Jl. Senopati No.Raya, RT.8/RW.3, Senayan, Kec. Kby. Baru, Kota Jakarta Selatan, Daerah Khusus Ibukota Jakarta 12190, Indonesia","ASHTA Lantai Dasar Unit LG-01, Jl. Senopati No.Raya, RT.8/RW.3, Senayan, Kota Jakarta Selatan",4.5,107,https://www.ranchmarket.co.id/,0812-8209-1909,,,True,Kemang_Demo,Ranch Market,False,2025-08-05T01:31:51.296885
ChIJe4U6y-TzaS4REB9L-0hqcqY,Ranch Market,Affluence_Proxy,Premium_Supermarket,-6.2277001,106.8257349,"Oakwood, Lingkar Mega Kuningan No.5 18, RT.5/RW.2, Kuningan, East Kuningan, Setiabudi, South Jakarta City, Jakarta 12950, Indonesia","Oakwood, Lingkar Mega Kuningan No.5 18, RT.5/RW.2, Kuningan, East Kuningan, South Jakarta City",4.4,394,http://www.ranchmarket.co.id/,(021) 25542493,,,True,Kemang_Demo,Ranch Market,False,2025-08-05T01:31:50.452708
ChIJITzpQKbxaS4Rty7RuJqLjsk,Yogurt Heavenlyblush ( Ranch Market Pondok Indah ),Affluence_Proxy,Premium_Supermarket,-6.2626973,106.7840553,"Jl. Sultan Iskandar Muda No.21 1, RT.1/RW.16, Pd. Pinang, Kec. Kby. Lama, Kota Jakarta Selatan, Daerah Khusus Ibukota Jakarta 12310, Indonesia","Jl. Sultan Iskandar Muda No.21 1, RT.1/RW.16, Pd. Pinang, Kota Jakarta Selatan",4.4,8,http://www.heavenlyblush.com/,(021) 25675903,,,False,Kemang_Demo,Ranch Market,,2025-08-05T01:31:51.457000
ChIJy-NBc_bzaS4Rfb54nSiMfnQ,Farmers Market,Affluence_Proxy,Premium_Supermarket,-6.2182508,106.8351427,"Jl. H. R. Rasuna Said, RT.2/RW.5, Karet Kuningan, Kecamatan Setiabudi, Kota Jakarta Selatan, Daerah Khusus Ibukota Jakarta 12940, Indonesia","Jl. H. R. Rasuna Said, RT.2/RW.5, Karet Kuningan, Kota Jakarta Selatan",4.4,554,http://www.farmersmarket.co.id/,(021) 29941299,,,True,Kemang_Demo,Ranch Market,False,2025-08-05T01:31:51.617009
ChIJO1x39abxaS4RvdaxzR-1yrA,Ranch Market Pondok Indah,Affluence_Proxy,Premium_Supermarket,-6.2630364,106.7847026,"RT.1, South Gandaria, Cilandak, South Jakarta City, Jakarta 12310, Indonesia","RT.1, South Gandaria, South Jakarta City",4.3,15,,,,,True,Kemang_Demo,Ranch Market,,2025-08-05T01:31:51.125453
ChIJFw8SmebvaS4RXymrB4tf8N4,Paletas Wey - Ranch Market Lotte Avenue,Affluence_Proxy,Premium_Supermarket,-6.2238953,106.8233368,"Ranch Market Lotte Shopping Avenue, Jl. Prof. DR. Satrio No.Kav 3-5, Kuningan, Karet Kuningan, Kecamatan Setiabudi, Kota Jakarta Selatan, Daerah Khusus Ibukota Jakarta 12940, Indonesia","Ranch Market Lotte Shopping Avenue, Jl. Prof. DR. Satrio No.Kav 3-5, Kuningan, Karet Kuningan, Kota Jakarta Selatan",3.7,3,http://www.paletaswey.com/,0813-8519-3668,,,True,Kemang_Demo,Ranch Market,False,2025-08-05T01:31:52.787259
ChIJP2N-Z6XxaS4RbyBNz2_dHX0,Sehati Animal Care | Praktik dokter hewan 24 Jam | Klinik Hewan 24 jam Jakarta | Grooming Pet Hotel dan Petshop,Competitor,Clinic+Grooming,-6.236641499999999,106.7719997,"Jl. Panjang No.1, Cipulir, Kec. Kby. Lama, Kota Jakarta Selatan, Daerah Khusus Ibukota Jakarta 12230, Indonesia","Jl. Panjang No.1, Cipulir, Kota Jakarta Selatan",4.5,159,https://www.sehatianimalcare.com/,0896-8885-9977,,,True,Kemang_Demo,klinik hewan,True,2025-08-05T01:31:31.825666
ChIJl0ujoLHxaS4RkPUqTaX1N_4,Alka pet care ( klinik hewan ),Competitor,Clinic_Only,-6.2905291,106.7949089,"Jl. Banjarsari IV No.4, RT.4/RW.8, Cilandak Bar., Kec. Cilandak, Kota Jakarta Selatan, Daerah Khusus Ibukota Jakarta 12430, Indonesia","Jl. Banjarsari IV No.4, RT.4/RW.8, Cilandak Bar., Kota Jakarta Selatan",5,71,,0853-3384-5315,,,True,Kemang_Demo,klinik hewan,False,2025-08-05T01:31:33.408269
ChIJj_hoRBfzaS4RSiC5dzCmugs,Klinik Dokter Hewan Dolce Tebet,Competitor,Clinic_Only,-6.2301899,106.8505648,"Jl. Tebet Raya No.20C Lt.2, Tebet Bar., Kec. Tebet, Kota Jakarta Selatan, Daerah Khusus Ibukota Jakarta 12810, Indonesia","Jl. Tebet Raya No.20C Lt.2, Tebet Bar., Kota Jakarta Selatan",4.9,12,,0811-8346-789,,,True,Kemang_Demo,klinik hewan,False,2025-08-05T01:31:32.898260
ChIJB2pIeuPxaS4Rnby5tCXOJ4s,Andifa Vet Clinic (Klinik Hewan Jakarta Selatan),Competitor,Clinic_Only,-6.2835154,106.8070842,"Jl. Pangeran Antasari No.18, Cilandak Bar., Kec. Cilandak, Kota Jakarta Selatan, Daerah Khusus Ibukota Jakarta 12430, Indonesia","Jl. Pangeran Antasari No.18, Cilandak Bar., Kota Jakarta Selatan",4.9,148,https://wa.me/message/X3Z5XUP6KEZ6D1,0821-2221-1918,,,True,Kemang_Demo,klinik hewan,False,2025-08-05T01:31:33.927880
ChIJ5aoxT5_xaS4RusxBMI47xxk,"Veterinary Doctor Practice by drh. Sigit Witjaksono, M.Biomed",Competitor,Clinic_Only,-6.263556599999999,106.7950853,"Jl. H. Nawi Raya No.20 4, RT.4/RW.7, Gandaria Utara, Kec. Kby. Baru, Kota Jakarta Selatan, Daerah Khusus Ibukota Jakarta 12140, Indonesia","Jl. H. Nawi Raya No.20 4, RT.4/RW.7, Gandaria Utara, Kota Jakarta Selatan",4.8,272,https://petpintar.com/alamat/veterinary-care/jakarta-selatan/praktek-dokter-hewan-drh-sigit-witjaksono-m-biomed,(021) 7247552,,,True,Kemang_Demo,klinik hewan,False,2025-08-05T01:31:33.756041
ChIJ42O9uAbxaS4RY9pVx6wOu8M,Petologi Veterinary Center | Dokter Hewan Bintaro,Competitor,Clinic_Only,-6.267784499999999,106.7657891,"Jl. RC. Veteran Raya No.1 No.12A, Bintaro, Kec. Pesanggrahan, Kota Jakarta Selatan, Daerah Khusus Ibukota Jakarta 12330, Indonesia","Jl. RC. Veteran Raya No.1 No.12A, Bintaro, South Jakarta City",4.8,139,https://instagram.com/petologivetcenter?utm_medium=copy_link,0811-9152-506,,,True,Kemang_Demo,klinik hewan,False,2025-08-05T01:31:34.096588
ChIJIR6sHZfzaS4RbLnBJdhxN4I,Mon's Pet,Competitor,Clinic_Only,-6.2334767,106.8504502,"Jl. Tebet Barat Raya No.20, RT.7/RW.2, Tebet Bar., Kec. Tebet, Kota Jakarta Selatan, Daerah Khusus Ibukota Jakarta 12810, Indonesia","Jl. Tebet Barat Raya No.20, RT.7/RW.2, Tebet Bar., Kota Jakarta Selatan",4.7,596,,0882-1208-9107,,,True,Kemang_Demo,klinik hewan,False,2025-08-05T01:31:33.066826
ChIJNR5uI9XzaS4RaWcKQN7Ve9Y,Smile Animal Clinic & Care,Competitor,Clinic_Only,-6.253616399999999,106.8402947,"Jl. Duren Tiga Raya No.7b 2, RT.2/RW.6, Duren Tiga, Kec. Pancoran, Kota Jakarta Selatan, Daerah Khusus Ibukota Jakarta 12760, Indonesia","Jl. Duren Tiga Raya No.7b 2, RT.2/RW.6, Duren Tiga, Kota Jakarta Selatan",4.6,360,,0812-1303-7825,,,True,Kemang_Demo,klinik hewan,False,2025-08-05T01:31:33.242521
ChIJqecrpK_xaS4Rrxu9KU1-4Zg,Drh. Daisy Satyadi,Competitor,Clinic_Only,-6.267637199999999,106.7815569,"Jl. Kartika Alam II No.49 3, RT.3/RW.16, Pd. Pinang, Jakarta, Kota Jakarta Selatan, Daerah Khusus Ibukota Jakarta 12310, Indonesia","Jl. Kartika Alam II No.49 3, RT.3/RW.16, Pd. Pinang, Kota Jakarta Selatan",4.6,30,,0812-8015-113,,,True,Kemang_Demo,klinik hewan,,2025-08-05T01:31:33.578283
ChIJL5UDiB_uaS4RQFhk_7ayKVM,"Klinik Hewan drh. Wilfried H. Purba, M.Kes & drh. I Ketut Artanawa",Competitor,Clinic_Only,-6.295173399999999,106.7948631,"Jl. RS. Fatmawati Raya No.38, RT.1/RW.4, Cilandak Bar., Kec. Cilandak, Kota Jakarta Selatan, Daerah Khusus Ibukota Jakarta 12140, Indonesia","Jl. RS. Fatmawati Raya No.38, RT.1/RW.4, Cilandak Bar., Kota Jakarta Selatan",4.5,53,https://petpintar.com/alamat/veterinary-care/jakarta-selatan/klinik-hewan-drh-wilfried-h-purba-mkes-drh-i-ketut-artanawa,(021) 7513247,,,True,Kemang_Demo,klinik hewan,,2025-08-05T01:31:32.326648
ChIJ3XoSexXyaS4RBb63_N8Olek,Amore Pejaten,Competitor,Clinic_Only,-6.278215899999999,106.844316,"Jl. Pejaten Raya No.16, RT.7/RW.5, Pejaten Bar., Ps. Minggu, Kota Jakarta Selatan, Daerah Khusus Ibukota Jakarta 12510, Indonesia","Jl. Pejaten Raya No.16, RT.7/RW.5, Pejaten Bar., Kota Jakarta Selatan",4.5,2339,,0858-9257-8936,,,True,Kemang_Demo,klinik hewan,False,2025-08-05T01:31:32.503728
ChIJ67bnA872aS4RZTeZ5zkHAso,GustaVet,Competitor,Clinic_Only,-6.2130553,106.7827333,"Jl. Bang Pitung No.7, Sukabumi Utara, Kec. Kb. Jeruk, Kota Jakarta Barat, Daerah Khusus Ibukota Jakarta 11540, Indonesia","Jl. Bang Pitung No.7, Sukabumi Utara, Kota Jakarta Barat",4.5,852,http://gustavet.com/,0859-6700-3334,,,True,Kemang_Demo,klinik hewan,False,2025-08-05T01:31:32.719063
ChIJ_7r5Bv_taS4Ru9usUG12xYo,Rumah Sakit Hewan Jakarta,Competitor,Clinic_Only,-6.299096599999999,106.8195514,"Jl. Harsono RM Belakang No.28, RT.9/RW.4, Ragunan, Ps. Minggu, Jakarta, Daerah Khusus Ibukota Jakarta 12550, Indonesia","Jl. Harsono RM Belakang No.28, RT.9/RW.4, Ragunan, Jakarta",4.1,2081,http://www.rumahsakithewanjakarta.com/,(021) 7891093,,,True,Kemang_Demo,klinik hewan,True,2025-08-05T01:31:32.159846
ChIJVYHZhoXxaS4Rjsm9PnQjDwc,Bintang Vet Radio Dalam Pondok Indah (Dokter Hewan 24 Jam & Petshop),Competitor,Emergency_Hospital,-6.2611624,106.7886315,"Jl. Radio Dalam Raya No.47d, Gandaria Utara, Kec. Kby. Baru, Kota Jakarta Selatan, Daerah Khusus Ibukota Jakarta 12140, Indonesia","Jl. Radio Dalam Raya No.47d, Gandaria Utara, Kota Jakarta Selatan",5,48,,0821-2141-9882,,,True,Kemang_Demo,klinik hewan,True,2025-08-05T01:31:31.987513
ChIJ8aGWqjLzaS4R2DzqP67RBZc,Arkha exopets jakarta,Competitor,Grooming_Only,-6.2172924,106.824716,"Jl. Anggrek 3 No.21, RT.010 RW002/RW.2, Kuningan, Karet Kuningan, Jakarta, Kota Jakarta Selatan, Daerah Khusus Ibukota Jakarta 12940, Indonesia","Jl. Anggrek 3 No.21, RT.010 RW002/RW.2, Kuningan, Karet Kuningan, Kota Jakarta Selatan",,0,,0817-7233-9373,,,True,Kemang_Demo,pet grooming,False,2025-08-05T01:31:43.768853
ChIJb4CQoHvxaS4R9znvEWDFhzI,Grooming jakarta(home servis ),Competitor,Grooming_Only,-6.2581029,106.7831419,"PQRM+Q72, Jl. Tanah Kusir II, RT.10/RW.9, Kby. Lama Sel., Kec. Kby. Lama, Kota Jakarta Selatan, Daerah Khusus Ibukota Jakarta 12240, Indonesia","PQRM+Q72, Jl. Tanah Kusir II, RT.10/RW.9, Kby. Lama Sel., Kota Jakarta Selatan",,0,,,,,True,Kemang_Demo,pet grooming,,2025-08-05T01:31:44.757939
ChIJl6k-RADzaS4RywFinOHAN4E,Cat grooming center,Competitor,Grooming_Only,-6.273282399999999,106.8539201,"Jl. Sawo No.37, RT.8/RW.1, Balekambang, Kec. Kramat jati, Kota Jakarta Timur, Daerah Khusus Ibukota Jakarta 13530, Indonesia","Jl. Sawo No.37, RT.8/RW.1, Balekambang, Kota Jakarta Timur",,0,,,,,True,Kemang_Demo,pet grooming,,2025-08-05T01:31:45.402941
ChIJYyKDdvDlaS4R-Y9SZSmTD3Y,GROOMING PANGGILAN ANJING&KUCING,Competitor,Grooming_Only,-6.2671028,106.8159953,"Bangka, Cilandak, Jakarta, 14145, Indonesia","Bangka, Jakarta",5,22,,0859-4080-2898,,,True,Kemang_Demo,pet grooming,True,2025-08-05T01:31:39.877293
ChIJe54hWADxaS4RQAaFcPgMhzY,Lychee Pet Grooming,Competitor,Grooming_Only,-6.259480000000001,106.781839,"PQRJ+6P4, Jl. Sultan Iskandar Muda, RT.12/RW.9, Kby. Lama Sel., Kec. Kby. Lama, Kota Jakarta Selatan, Daerah Khusus Ibukota Jakarta 12240, Indonesia","PQRJ+6P4, Jl. Sultan Iskandar Muda, RT.12/RW.9, Kby. Lama Sel., Kota Jakarta Selatan",5,13,,0817-6942-125,,,True,Kemang_Demo,pet grooming,False,2025-08-05T01:31:40.212777
ChIJ42ug3IvxaS4Rx0I_sVJw9rM,Pawmons Petshop and Grooming,Competitor,Grooming_Only,-6.260135200000001,106.7990787,"Jl. Damai Raya No.39D 11, RT.11/RW.5, Cipete Utara, Kec. Kby. Baru, Jakarta, Daerah Khusus Ibukota Jakarta 12150, Indonesia","Jl. Damai Raya No.39D 11, RT.11/RW.5, Cipete Utara, Jakarta",5,3,,0812-9839-2208,,,True,Kemang_Demo,pet grooming,False,2025-08-05T01:31:43.277603
ChIJm7iQJgvxaS4RjYfDLN16wv4,Prowine pet grooming home service,Competitor,Grooming_Only,-6.254321399999999,106.8176711,"Jl. Kemang Raya, Pela Mampang, Kec. Mampang Prpt., Kota Jakarta Selatan, Daerah Khusus Ibukota Jakarta 12730, Indonesia","Jl. Kemang Raya, Pela Mampang, Kota Jakarta Selatan",5,4,,0852-1924-3186,,,True,Kemang_Demo,pet grooming,False,2025-08-05T01:31:43.932093
ChIJgVakTbvzaS4RrU-W2muzTIc,Anaabulnya Grooming,Competitor,Grooming_Only,-6.254056599999999,106.8222121,"Jl. Bangka Raya, RT.12/RW.10, Pela Mampang, Kec. Mampang Prpt., Kota Jakarta Selatan, Daerah Khusus Ibukota Jakarta 12720, Indonesia","Jl. Bangka Raya, RT.12/RW.10, Pela Mampang, Kota Jakarta Selatan",5,1,,0895-6131-44345,,,True,Kemang_Demo,pet grooming,False,2025-08-05T01:31:47.065504
ChIJEftEwi3xaS4RJuaQ1akXrHI,Pets Grooming Meonghi,Competitor,Grooming_Only,-6.2821696,106.8161427,"Jl. Madrasah 2, Cilandak Tim., Ps. Minggu, Kota Jakarta Selatan, Daerah Khusus Ibukota Jakarta 12540, Indonesia","Jl. Madrasah 2, Cilandak Tim., Kota Jakarta Selatan",5,3,,0877-8047-7277,,,True,Kemang_Demo,pet grooming,False,2025-08-05T01:31:48.297290
ChIJI2jVMNnzaS4R90uu2o8zAvc,Jasa Groming KucingTerdekat | Real Grooming,Competitor,Grooming_Only,-6.2229928,106.8590388,"Jl. Bukit Duri Tanjakan No.6, RT.2/RW.9, Bukit Duri, Kec. Tebet, Kota Jakarta Selatan, Daerah Khusus Ibukota Jakarta 12840, Indonesia","Jl. Bukit Duri Tanjakan No.6, RT.2/RW.9, Bukit Duri, Kota Jakarta Selatan",5,1,,0898-8367-577,,,True,Kemang_Demo,pet grooming,False,2025-08-05T01:31:49.140431
ChIJ2XCsL0vxaS4R2PowE7VpCn4,Pawppy,Competitor,Grooming_Only,-6.2687069,106.8173573,"Jl. Kemang Selatan ID No.15A, RW.2, Bangka, Kec. Mampang Prpt., Kota Jakarta Selatan, Daerah Khusus Ibukota Jakarta 12730, Indonesia","Jl. Kemang Selatan ID No.15A, RW.2, Bangka, Kota Jakarta Selatan",4.9,75,,0812-1340-4037,,,True,Kemang_Demo,pet grooming,False,2025-08-05T01:31:40.039695
ChIJZ1Iwd3HxaS4Rm5QRdFfpKIc,Misterpet Indonesia - Kemang,Competitor,Grooming_Only,-6.263131,106.8135358,"Jl. Kemang Selatan II No.25, RT.8/RW.2, Bangka, Kec. Mampang Prpt., Kota Jakarta Selatan, Daerah Khusus Ibukota Jakarta 12730, Indonesia","Jl. Kemang Selatan II No.25, RT.8/RW.2, Bangka, Kota Jakarta Selatan",4.9,46,https://misterpet.id/,0811-1180-7519,,,True,Kemang_Demo,pet grooming,False,2025-08-05T01:31:41.941043
ChIJYzcz6WnzaS4R9lA7ApYf4n4,Floof at Kemang,Competitor,Grooming_Only,-6.2633095,106.8230806,"Jalan Kemang Timur VI no.1 Bangka, Mampang Prapatan, Bangka, Kec. Kby. Baru, Kota Jakarta Selatan, Daerah Khusus Ibukota Jakarta 12730, Indonesia","Jalan Kemang Timur VI no.1 Bangka, Mampang Prapatan, Kota Jakarta Selatan",4.9,40,,0857-1547-5350,,,True,Kemang_Demo,pet grooming,False,2025-08-05T01:31:42.283964
ChIJW9aSJanxaS4RC6b0srpyJ3c,Grooming jakarta,Competitor,Grooming_Only,-6.2608596,106.7853701,"Jl. Tanah Kusir No.2, Kby. Lama Sel., Kec. Kby. Lama, Jakarta, Daerah Khusus Ibukota Jakarta 10110, Indonesia","Jl. Tanah Kusir No.2, Kby. Lama Sel., Jakarta",4.9,73,,0822-7993-0620,,,True,Kemang_Demo,pet grooming,False,2025-08-05T01:31:42.446640
ChIJWfLOgfrxaS4RHMDeEUJldvM,MAGADISA PET SPA & GROOMING,Competitor,Grooming_Only,-6.2687247,106.8243505,"Jl. Kemang Tim. 17 No.110 M, Bangka, Kec. Mampang Prpt., Kota Jakarta Selatan, Daerah Khusus Ibukota Jakarta 12730, Indonesia","Jl. Kemang Tim. 17 No.110 M, Bangka, Kota Jakarta Selatan",4.9,257,,0813-1680-3886,,,True,Kemang_Demo,pet grooming,False,2025-08-05T01:31:42.952094
ChIJBRkj-obxaS4RNDvmBCwp6v0,Prima Petshop Tanah Kusir,Competitor,Grooming_Only,-6.2530833,106.7736959,"Jl. Bintaro Raya Tanah Kusir No.12, RT.4/RW.10, Kby. Lama Utara, Kec. Pesanggrahan, Kota Jakarta Selatan, Daerah Khusus Ibukota Jakarta 12240, Indonesia","Jl. Bintaro Raya Tanah Kusir No.12, RT.4/RW.10, Kby. Lama Utara, Kota Jakarta Selatan",4.9,13,,0818-0608-3914,,,True,Kemang_Demo,pet grooming,False,2025-08-05T01:31:43.447816
ChIJXetwpt75aS4RebYSFkwOWWg,DOG Daycare Jakarta,Competitor,Grooming_Only,-6.2661814,106.8082144,"Jl. Abdul Majid Raya No.31, Cipete Sel., Kec. Cilandak, Kota Jakarta Selatan, Daerah Khusus Ibukota Jakarta 12410, Indonesia","Jl. Abdul Majid Raya No.31, Cipete Sel., Kota Jakarta Selatan",4.9,89,http://www.dogdaycarejakarta.com/,0822-5888-5576,,,True,Kemang_Demo,pet grooming,False,2025-08-05T01:31:44.922901
ChIJfVFXsmftaS4R8_etnUdY7_E,DRPAWS Petshop & Dokter Hewan Condet,Competitor,Grooming_Only,-6.2825973,106.8554115,"depan Global Islamic School, 15 D, Jl. Raya Condet, Batu Ampar, Kec. Kramat jati, Kota Jakarta Timur, Daerah Khusus Ibukota Jakarta 13530, Indonesia","depan Global Islamic School, 15 D, Jl. Raya Condet, Batu Ampar, Kota Jakarta Timur",4.9,301,http://drpaws.id/,0812-1011-0170,,,True,Kemang_Demo,pet grooming,False,2025-08-05T01:31:45.087994
ChIJWxl8nevzaS4RWHR_RJZLa-4,Queen & King Petshop,Competitor,Grooming_Only,-6.272029,106.857817,"Jl. Raya Condet No.29 5, RT.5/RW.4, Batu Ampar, Kec. Kramat jati, Kota Jakarta Timur, Daerah Khusus Ibukota Jakarta 13520, Indonesia","Jl. Raya Condet No.29 5, RT.5/RW.4, Batu Ampar, Kota Jakarta Timur",4.9,82,https://www.instagram.com/queennkingpetshop/,0877-7527-3404,,,True,Kemang_Demo,pet grooming,False,2025-08-05T01:31:45.569188
ChIJM6xxUIXxaS4RwtEKDjq5ET0,Gemilang Petshop,Competitor,Grooming_Only,-6.2664157,106.7743662,"10, Jl. H. Muhi Raya No.27, RT.10/RW.1, Pd. Pinang, Kec. Kby. Lama, Kota Jakarta Selatan, Daerah Khusus Ibukota Jakarta 12310, Indonesia","10, Jl. H. Muhi Raya No.27, RT.10/RW.1, Pd. Pinang, Kota Jakarta Selatan",4.9,40,,0898-1959-944,,,True,Kemang_Demo,pet grooming,False,2025-08-05T01:31:46.740345
ChIJMatNzrvxaS4Rx7FFLpVbVN8,Arnamir Cat Hotel & Grooming Cikajang Kebayoran,Competitor,Grooming_Only,-6.2416116,106.8105059,"Jl. Cikajang No.35, Petogogan, Kec. Kby. Baru, Jakarta, Daerah Khusus Ibukota Jakarta 12170, Indonesia","Jl. Cikajang No.35, Petogogan, Jakarta",4.9,115,,0816-1790-4609,,,True,Kemang_Demo,pet grooming,False,2025-08-05T01:31:47.778428
ChIJwy_UtbPzaS4RZQiUYMx3VyY,Grooming Kucing Panggilan - Grooming Kucing Panggilan,Competitor,Grooming_Only,-6.2483279,106.8522009,"Jl. Pengadegan Barat IV No.6, RT.5/RW.6, Pengadegan, Kec. Pancoran, Kota Jakarta Selatan, Daerah Khusus Ibukota Jakarta 12770, Indonesia","Jl. Pengadegan Barat IV No.6, RT.5/RW.6, Pengadegan, Kota Jakarta Selatan",4.8,100,http://www.pet-shop.id/,0858-1369-3931,,,True,Kemang_Demo,pet grooming,True,2025-08-05T01:31:41.267138
ChIJ07n6dLfxaS4R8gy-5aUFP3Q,Pet Avenue by Petshop Indonesia,Competitor,Grooming_Only,-6.2597171,106.7895259,"Jl. Radio Dalam Raya No.84, RT.5/RW.14, Gandaria Utara, Kec. Kby. Baru, Kota Jakarta Selatan, Daerah Khusus Ibukota Jakarta 12140, Indonesia","Jl. Radio Dalam Raya No.84, RT.5/RW.14, Gandaria Utara, Kota Jakarta Selatan",4.8,531,http://www.petshopindonesia.com/,0812-1212-9775,,,True,Kemang_Demo,pet grooming,False,2025-08-05T01:31:43.124609
ChIJzw7PkGjzaS4R0XC0qw9Q1FU,Obie Petshop,Competitor,Grooming_Only,-6.2215395,106.8291102,"Pedurenan Masjid 2 Rt.010/04 No.17, Catering H. Ali, RT.10/RW.4, Kuningan, Karet Kuningan, Kecamatan Setiabudi, Kota Jakarta Selatan, Daerah Khusus Ibukota Jakarta 12940, Indonesia","Catering H. Ali, Pedurenan Masjid 2 Rt.010/04 No.17, RT.10/RW.4, Kuningan, Karet Kuningan, Kota Jakarta Selatan",4.8,31,,0815-1716-0777,,,True,Kemang_Demo,pet grooming,False,2025-08-05T01:31:47.230853
ChIJE5aRwUHzaS4RvZ3apBTnR0s,Regal Snout,Competitor,Grooming_Only,-6.260389900000001,106.8242161,"Jl. Kemang Timur IIIA No.2B, RT.7/RW.4, Bangka, Kec. Mampang Prpt., Kota Jakarta Selatan, Daerah Khusus Ibukota Jakarta 12730, Indonesia","Jl. Kemang Timur IIIA No.2B, RT.7/RW.4, Bangka, Kota Jakarta Selatan",4.8,6,,0823-1111-1689,,,True,Kemang_Demo,pet grooming,False,2025-08-05T01:31:48.973987
ChIJnwS8KzTzaS4RnWVy8_5XCpM,Dolce Pet Shop & Grooming Tebet Raya,Competitor,Grooming_Only,-6.2302772,106.8506636,"Jl. Tebet Raya No.20C, Tebet Bar., Kec. Tebet, Kota Jakarta Selatan, Daerah Khusus Ibukota Jakarta 12810, Indonesia","Jl. Tebet Raya No.20C, Tebet Bar., Kota Jakarta Selatan",4.7,143,,0811-8346-789,,,True,Kemang_Demo,pet grooming,False,2025-08-05T01:31:40.370948
ChIJC7xAwS_zaS4Rjrza64G2zrc,THE NOBLE PET,Competitor,Grooming_Only,-6.23841,106.8512125,"Jl. Tebet Barat IX No.05, Tebet Bar., Kec. Tebet, Kota Jakarta Selatan, Daerah Khusus Ibukota Jakarta 12810, Indonesia","Jl. Tebet Barat IX No.05, Tebet Bar., Kota Jakarta Selatan",4.7,95,,0857-7707-5917,,,True,Kemang_Demo,pet grooming,False,2025-08-05T01:31:40.906196
ChIJ89xMR7LyaS4Rn-h5VbCvNKE,Paws & Claws Pet Shop and Care Pejaten Raya,Competitor,Grooming_Only,-6.279909,106.834867,"Jl. Pejaten Raya No.40, RT.7 7, RT.7/RW.10, Pejaten Bar., Ps. Minggu, Kota Jakarta Selatan, Daerah Khusus Ibukota Jakarta 12540, Indonesia","Jl. Pejaten Raya No.40, RT.7 7, RT.7/RW.10, Pejaten Bar., Kota Jakarta Selatan",4.7,225,https://www.tokopedia.com/pawsandclawsps?nref=shphead,0811-9888-886,,,True,Kemang_Demo,pet grooming,False,2025-08-05T01:31:45.252794
ChIJocEIv7fzaS4RZNcWqbtcN9w,Tebet Pet Shop,Competitor,Grooming_Only,-6.2262951,106.8525509,"Jl. Tebet Utara I No.36C, RT.4/RW.2, Tebet Tim., Kec. Tebet, Kota Jakarta Selatan, Daerah Khusus Ibukota Jakarta 12820, Indonesia","Jl. Tebet Utara I No.36C, RT.4/RW.2, Tebet Tim., Kota Jakarta Selatan",4.7,107,,0811-8448-500,,,True,Kemang_Demo,pet grooming,False,2025-08-05T01:31:46.072350
ChIJqdEsIZ3zaS4RdMC3AEdoYsA,Pet Kingdom Kemang Village,Competitor,Grooming_Only,-6.261597099999999,106.8130577,"Lippo mall, RT.11/RW.5, Bangka, Kec. Mampang Prpt., Kota Jakarta Selatan, Daerah Khusus Ibukota Jakarta 12730, Indonesia","Lippo mall, RT.11/RW.5, Bangka, Kota Jakarta Selatan",4.7,671,https://wa.me/c/6289612119328,0896-1211-9328,,,True,Kemang_Demo,pet grooming,False,2025-08-05T01:31:46.404094
ChIJaacmQ3_xaS4Ryv8wN3e87IQ,TDPS Kemang (Tanjung Duren Petshop Kemang),Competitor,Grooming_Only,-6.257613099999999,106.81318,"Jl. Kemang I No.12G, RT.10/RW.1, Bangka, Kec. Mampang Prpt., Kota Jakarta Selatan, Daerah Khusus Ibukota Jakarta 12730, Indonesia","Jl. Kemang I No.12G, RT.10/RW.1, Bangka, Kota Jakarta Selatan",4.7,81,http://www.tjdurenpetshop.com/,0815-7475-5553,,,True,Kemang_Demo,pet grooming,False,2025-08-05T01:31:46.575590
ChIJoRWw_ZjzaS4RRfpZO42AKOY,Paws & Claws Pet Shop and Care Tebet Timur,Competitor,Grooming_Only,-6.2340187,106.8567472,"Jl. Tebet Timur Dalam Raya No.64, Tebet Tim., Kec. Tebet, Jakarta, Daerah Khusus Ibukota Jakarta 12820, Indonesia","Jl. Tebet Timur Dalam Raya No.64, Tebet Tim., Jakarta",4.6,350,https://www.tokopedia.com/pawsandclawsps?nref=shphead,(021) 83786852,,,True,Kemang_Demo,pet grooming,False,2025-08-05T01:31:40.544451
ChIJy4nvVSruaS4RP5j7mMI__iM,Wippoo Petshop & Grooming,Competitor,Grooming_Only,-6.3067546,106.772852,"Jl. Raya Cirendeu No.50, Cireundeu, Kec. Ciputat Tim., Kota Tangerang Selatan, Banten 15419, Indonesia","Jl. Raya Cirendeu No.50, Cireundeu, Kota Tangerang Selatan",4.6,161,,0878-8995-5089,,,True,Kemang_Demo,pet grooming,False,2025-08-05T01:31:40.732852
ChIJY6DS1IbzaS4RTX4-4k9Eawg,"BARK Pet @ Como Park, Kemang",Competitor,Grooming_Only,-6.2723394,106.8208038,"Como Park Kemang, RT.1/RW.3, Bangka, Kec. Mampang Prpt., Kota Jakarta Selatan, Daerah Khusus Ibukota Jakarta 12730, Indonesia","Como Park Kemang, RT.1/RW.3, Bangka, Kota Jakarta Selatan",4.6,34,http://instagram.com/barkpet.id,0817-1717-3360,,,True,Kemang_Demo,pet grooming,False,2025-08-05T01:31:41.771483
ChIJx5TjfSvyaS4RKpvktMqBMTU,Zoom Pet City Jakarta,Competitor,Grooming_Only,-6.260500899999999,106.8237476,"Jalan Kemang Timur 3A No.2 Mampang Prapatan, RT.6/RW.4, Bangka, Jakarta Selatan, Kota Jakarta Selatan, Daerah Khusus Ibukota Jakarta 12730, Indonesia","Jalan Kemang Timur 3A No.2 Mampang Prapatan, RT.6/RW.4, Bangka, Kota Jakarta Selatan",4.6,628,https://m.facebook.com/ZoomPetCityJakarta,0877-7835-2777,,,True,Kemang_Demo,pet grooming,False,2025-08-05T01:31:43.620513
ChIJXSeaM9vxaS4Rse8GUGYQVAI,Mora Petshop,Competitor,Grooming_Only,-6.2256785,106.7731797,"Jl. Assirot No.6 Rt.002/03, RT.9/RW.3, Grogol Sel., Kec. Kby. Lama, Kota Jakarta Selatan, Daerah Khusus Ibukota Jakarta 11560, Indonesia","Jl. Assirot No.6 Rt.002/03, RT.9/RW.3, Grogol Sel., Kota Jakarta Selatan",4.6,95,,0811-9295-997,,,True,Kemang_Demo,pet grooming,False,2025-08-05T01:31:44.612153
ChIJkRd4DOPxaS4RpNSgcCKgLKA,Tiny Paw Petshop,Competitor,Grooming_Only,-6.2577907,106.7897345,"Jl. Bri Radio Dalam No.42A 1, RT.1/RW.1, Gandaria Utara, Kec. Kby. Baru, Kota Jakarta Selatan, Daerah Khusus Ibukota Jakarta 12140, Indonesia","Jl. Bri Radio Dalam No.42A 1, RT.1/RW.1, Gandaria Utara, Kota Jakarta Selatan",4.6,36,,0812-7839-2434,,,True,Kemang_Demo,pet grooming,False,2025-08-05T01:31:45.731906
ChIJjxDtnhbvaS4Rm58PEflDESo,Grooming panggilan terdekat Kucing anjing Tinypet,Competitor,Grooming_Only,-6.305716899999999,106.7657704,"Jl. Gn. Raya No.1A, RT.1/RW.011, Cireundeu, Kec. Ciputat Tim., Kota Tangerang Selatan, Banten 15445, Indonesia","Jl. Gn. Raya No.1A, RT.1/RW.011, Cireundeu, Kota Tangerang Selatan",4.5,58,,0813-1473-6374,,,True,Kemang_Demo,pet grooming,True,2025-08-05T01:31:39.714915
ChIJiXhzjNH2aS4R8e33y6VH1Cs,Happy Pets Petshop & Grooming,Competitor,Grooming_Only,-6.213157,106.78136,"Jl. Bang Pitung No.9B C, RT.4/RW.1, Sukabumi Utara, Kec. Kb. Jeruk, Kota Jakarta Barat, Daerah Khusus Ibukota Jakarta 12240, Indonesia","Jl. Bang Pitung No.9B C, RT.4/RW.1, Sukabumi Utara, Kota Jakarta Barat",4.5,643,,0813-8374-4340,,,True,Kemang_Demo,pet grooming,False,2025-08-05T01:31:42.776050
ChIJwaJUlWvxaS4RpbZ0GPDn_Ok,Groovy Pet Center Radio,Competitor,Grooming_Only,-6.2490868,106.7929767,"Jl. Radio III No.1 1, RT.1/RW.4, Kramat Pela, Kec. Kby. Baru, Kota Jakarta Selatan, Daerah Khusus Ibukota Jakarta 12130, Indonesia","Jl. Radio III No.1 1, RT.1/RW.4, Kramat Pela, Kota Jakarta Selatan",4.5,249,https://groovy.co.id/,0818-0863-7387,,,True,Kemang_Demo,pet grooming,False,2025-08-05T01:31:44.444080
ChIJB-XD0ibyaS4RXDz2fkPAcpM,Animal Clinic Jakarta,Competitor,Grooming_Only,-6.2753054,106.8299618,"Jl. Warung Buncit Raya No.23, RT.2/RW.7, Pejaten Bar., Ps. Minggu, Kota Jakarta Selatan, Daerah Khusus Ibukota Jakarta 12510, Indonesia","Jl. Warung Buncit Raya No.23, RT.2/RW.7, Pejaten Bar., Kota Jakarta Selatan",4.5,321,,(021) 7902371,,,True,Kemang_Demo,pet grooming,False,2025-08-05T01:31:45.899572
ChIJaau63IntaS4RQq4IoR7n92E,Tail Story Pet Shop,Competitor,Grooming_Only,-6.298845999999999,106.8491814,"Jl. Poltangan Raya No.5 3, RT.9/RW.5, Tj. Bar., Kec. Jagakarsa, Kota Jakarta Selatan, Daerah Khusus Ibukota Jakarta 12530, Indonesia","Jl. Poltangan Raya No.5 3, RT.9/RW.5, Tj. Bar., Kota Jakarta Selatan",4.5,110,,0898-9610-388,,,True,Kemang_Demo,pet grooming,False,2025-08-05T01:31:46.901544
ChIJW2iDe6TxaS4R4xY7NmfAKqc,Midipetshop,Competitor,Grooming_Only,-6.2619066,106.7953667,"Jl. Binakarya No.114, RT.1/RW.7, Gandaria Utara, Kec. Kby. Baru, Kota Jakarta Selatan, Daerah Khusus Ibukota Jakarta 12140, Indonesia","Jl. Binakarya No.114, RT.1/RW.7, Gandaria Utara, Kota Jakarta Selatan",4.5,2,,0856-9529-1917,,,True,Kemang_Demo,pet grooming,False,2025-08-05T01:31:47.596872
ChIJHRiT9VXzaS4Ru617o8efzt8,Mocca Petshop & Clinic,Competitor,Grooming_Only,-6.2245868,106.8466808,"Jalan palbatu raya 3, Jl. Pal Batu 1 No.3, RT.1/RW.4, Menteng Dalam, Kec. Tebet, Kota Jakarta Selatan, Daerah Khusus Ibukota Jakarta 12870, Indonesia","Jalan palbatu raya 3, Jl. Pal Batu 1 No.3, RT.1/RW.4, Menteng Dalam, Kota Jakarta Selatan",4.5,159,,0811-8183-387,,,True,Kemang_Demo,pet grooming,False,2025-08-05T01:31:48.128854
ChIJoWmEOIfxaS4R48OLfyxHP48,Groovy Pet Shop & Services - Kemang Raya,Competitor,Grooming_Only,-6.272804199999999,106.8146797,"Jl. Kemang Sel. XII No.129 B, Bangka, Kec. Mampang Prpt., Kota Jakarta Selatan, Daerah Khusus Ibukota Jakarta 12560, Indonesia","Jl. Kemang Sel. XII No.129 B, Bangka, Kota Jakarta Selatan",4.4,191,http://www.groovy.co.id/,(021) 7197704,,,True,Kemang_Demo,pet grooming,False,2025-08-05T01:31:41.437664
ChIJS1CgaX_xaS4Ryp_DiB6844E,Jakpetz - Kemang,Competitor,Grooming_Only,-6.272912499999999,106.8158577,"Jl. Kemang Sel. Raya No.125, Bangka, Kec. Mampang Prpt., Kota Jakarta Selatan, Daerah Khusus Ibukota Jakarta 12730, Indonesia","Jl. Kemang Sel. Raya No.125, Bangka, Kota Jakarta Selatan",4.4,257,http://jakpetz.co.id/,(021) 7181104,,,True,Kemang_Demo,pet grooming,False,2025-08-05T01:31:42.116958
ChIJ1bCkgI7zaS4Rf97WfrNHEt8,My Hammy Land Pet Shop,Competitor,Grooming_Only,-6.229180599999999,106.8476997,"Jl. Dr. Saharjo No.13 13, RT.13/RW.2, Tebet Bar., Kec. Tebet, Kota Jakarta Selatan, Daerah Khusus Ibukota Jakarta 12810, Indonesia","Jl. Dr. Saharjo No.13 13, RT.13/RW.2, Tebet Bar., Kota Jakarta Selatan",4.4,110,https://bit.ly/myhammyland,(021) 8299697,,,True,Kemang_Demo,pet grooming,False,2025-08-05T01:31:48.466545
ChIJPwMrMi3zaS4RoWOZnnSoJUQ,PiKa Petshop,Competitor,Grooming_Only,-6.2473432,106.8478592,"Jl. Pengadegan Utara No.7B, RT.1/RW.8, Cikoko, Kec. Pancoran, Kota Jakarta Selatan, Daerah Khusus Ibukota Jakarta 12770, Indonesia","Jl. Pengadegan Utara No.7B, RT.1/RW.8, Cikoko, Kota Jakarta Selatan",4.4,36,,0812-1212-7516,,,True,Kemang_Demo,pet grooming,False,2025-08-05T01:31:48.640076
ChIJ9YmxadXzaS4RD-gvkxu6g7s,O Petshop - Kemang,Competitor,Grooming_Only,-6.2570492,106.8188188,"7, Jl. Kemang Utara I No.19A, RT.7/RW.1, Bangka, Kec. Mampang Prpt., Kota Jakarta Selatan, Daerah Khusus Ibukota Jakarta 12730, Indonesia","7, Jl. Kemang Utara I No.19A, RT.7/RW.1, Kota Jakarta Selatan",4.3,91,,0878-1710-7017,,,True,Kemang_Demo,pet grooming,False,2025-08-05T01:31:41.099225
ChIJt8-Bf-LzaS4RwbkmSza7-Nk,Aplikasi PETO (Kantor Pusat PT PETO),Competitor,Grooming_Only,-6.2705741,106.8394352,"kompleks bank niaga, 12510, Jl. Bank No.14, RT.15/RW.3, Pejaten Bar., Ps. Minggu, Kota Jakarta Selatan, Daerah Khusus Ibukota Jakarta 12510, Indonesia","kompleks bank niaga, 12510, Jl. Bank No.14, RT.15/RW.3, Pejaten Bar., Kota Jakarta Selatan",4.3,6,https://www.peto.pet/,0812-1111-2929,,,True,Kemang_Demo,pet grooming,True,2025-08-05T01:31:42.605986
ChIJa-bTT6HxaS4RsSrBDEm-wX4,Urban Pets,Competitor,Grooming_Only,-6.2630715,106.7875554,"Plaza 5, Jl. Margaguna Raya No.4 Unit D-02, RT.4/RW.11, Gandaria Utara, Kec. Kby. Baru, Kota Jakarta Selatan, Daerah Khusus Ibukota Jakarta 12140, Indonesia","Plaza 5, Jl. Margaguna Raya No.4 Unit D-02, RT.4/RW.11, Gandaria Utara, Kota Jakarta Selatan",4.3,97,,(021) 72800134,,,True,Kemang_Demo,pet grooming,False,2025-08-05T01:31:44.278292
ChIJjf-zPqrxaS4Rl3oPDzJBveA,Pondok Pinang Pet Shop & Grooming,Competitor,Grooming_Only,-6.261644299999999,106.7752374,"Jl. Ciputat Raya No.8A, RT.1/RW.2, Pd. Pinang, Kec. Kby. Lama, Kota Jakarta Selatan, Daerah Khusus Ibukota Jakarta 12310, Indonesia","Jl. Ciputat Raya No.8A, RT.1/RW.2, Pd. Pinang, Kota Jakarta Selatan",4.3,47,,0813-1736-8383,,,True,Kemang_Demo,pet grooming,False,2025-08-05T01:31:47.418204
ChIJaRsfGzXxaS4R1UdOE4XM2vw,WOOF! Pet Store Senayan,Competitor,Grooming_Only,-6.2203108,106.7917661,"Rukan Permata Senayan Blok D12,, Jalan Tentara Pelajar, RT.1/RW.7, Grogol Utara, Kec. Kby. Lama, Kota Jakarta Selatan, Daerah Khusus Ibukota Jakarta 12210, Indonesia","Rukan Permata Senayan Blok D12,, Jalan Tentara Pelajar, RT.1/RW.7, Grogol Utara, Kota Jakarta Selatan",4.3,52,,(021) 57940802,,,True,Kemang_Demo,pet grooming,False,2025-08-05T01:31:47.960594
ChIJQT6CRoXxaS4RSw9w2XUt67Y,House Call Grooming || Senja Cats,Competitor,Grooming_Only,-6.2203357,106.7658391,"Jl. Pahlawan II No.1, RT.1/RW.5, Sukabumi Sel., Kec. Kb. Jeruk, Kota Jakarta Barat, Daerah Khusus Ibukota Jakarta 11560, Indonesia","Jl. Pahlawan II No.1, RT.1/RW.5, Sukabumi Sel., Kota Jakarta Barat",4.2,6,,0877-7180-7061,,,True,Kemang_Demo,pet grooming,True,2025-08-05T01:31:41.599018
ChIJYVjvvZPxaS4RA2njtEBSIOE,PETGO CIPETE,Competitor,Grooming_Only,-6.279406799999999,106.7981611,"Jl. BDN Raya No.10B, RT.10/RW.11, Cilandak Bar., Kec. Cilandak, Kota Jakarta Selatan, Daerah Khusus Ibukota Jakarta 12430, Indonesia","Jl. BDN Raya No.10B, RT.10/RW.11, Cilandak Bar., Kota Jakarta Selatan",4.2,33,,0811-9718-871,,,True,Kemang_Demo,pet grooming,False,2025-08-05T01:31:46.243019
ChIJASDSyizyaS4RfAOCyXcJXOc,GM Pet Shop - Bangka,Competitor,Grooming_Only,-6.2666783,106.8151332,"Jl. Kemang Raya No.RT.10, RT.11/RW.1, Bangka, Kec. Mampang Prpt., Kota Jakarta Selatan, Daerah Khusus Ibukota Jakarta 12730, Indonesia","Jl. Kemang Raya No.RT.10, RT.11/RW.1, Bangka, Kota Jakarta Selatan",4.1,42,http://alamatpetshop.blogspot.com/2016/11/alamat-gm-pet-shop-jakarta_1.html,(021) 7193642,,,True,Kemang_Demo,pet grooming,False,2025-08-05T01:31:48.810168
ChIJMRY_Qn_xaS4RdTkpbSwUcI4,Pet Station & Grooming Center,Competitor,Grooming_Only,-6.2579335,106.8131913,"Jl. Kemang I No.12A 10, RT.10/RW.1, Bangka, Kec. Mampang Prpt., Kota Jakarta Selatan, Daerah Khusus Ibukota Jakarta 12730, Indonesia","Jl. Kemang I No.12A 10, RT.10/RW.1, Bangka, Kota Jakarta Selatan",3.7,52,,0812-8007-5603,,,True,Kemang_Demo,pet grooming,False,2025-08-05T01:31:44.110804
ChIJ_2OANZjxaS4RFaJTQ2w8njs,Kopi Cat Cafe by Groovy,Lifestyle_Proxy,Pet_Cafe,-6.2672572,106.8143343,"Jl. Kemang Selatan VIII No.63A-B, RT.7/RW.2, Bangka, Kec. Mampang Prpt., Kota Jakarta Selatan, Daerah Khusus Ibukota Jakarta 12730, Indonesia","Jl. Kemang Selatan VIII No.63A-B, RT.7/RW.2, Bangka, Kota Jakarta Selatan",4.8,629,http://kopicatcafe.id/,0811-1000-8809,$$,,True,Kemang_Demo,pet cafe,False,2025-08-05T01:31:53.617211
ChIJSSiBI8LxaS4RNNFCSObC2YE,FRIENDS 52 Cafe,Lifestyle_Proxy,Pet_Cafe,-6.2852592,106.792532,"Jl. Caringin Barat No.13 15, RT.15/RW.10, Cilandak Bar., Kec. Cilandak, Kota Jakarta Selatan, Daerah Khusus Ibukota Jakarta 12430, Indonesia","Jl. Caringin Barat No.13 15, RT.15/RW.10, Cilandak Bar., Kota Jakarta Selatan",4.8,17,,0856-1813-662,,,True,Kemang_Demo,pet cafe,True,2025-08-05T01:31:54.477900
ChIJn29omlLxaS4R_jLgTKMrEAI,Cecemuwe Cafe and Space - Senayan,Lifestyle_Proxy,Pet_Cafe,-6.236135099999999,106.7933281,"Jl. Hang Jebat IX No.6, RT.8/RW.4, Gunung, Kec. Kby. Baru, Kota Jakarta Selatan, Daerah Khusus Ibukota Jakarta 12120, Indonesia","Jl. Hang Jebat IX No.6, RT.8/RW.4, Gunung, Kota Jakarta Selatan",4.7,1158,https://www.cecemuwe.com/,0812-8338-8128,$$,,True,Kemang_Demo,pet cafe,False,2025-08-05T01:31:53.786667
ChIJx1anOi_xaS4RkCmO1UI7FgI,Monsieur Husky,Lifestyle_Proxy,Pet_Cafe,-6.2553338,106.8144731,"Jl. Bangka Raya Jl. Kemang Raya No.13 No. 5C, RT.13/RW.1, Bangka, Kec. Mampang Prpt., Kota Jakarta Selatan, Daerah Khusus Ibukota Jakarta 12730, Indonesia","Wisma Surya Kemang, Jl. Bangka Raya Jl. Kemang Raya No.13 No. 5C, RT.13/RW.1, Bangka, South Jakarta City",4.7,13,,(021) 71794726,,,True,Kemang_Demo,pet cafe,False,2025-08-05T01:31:53.950969
ChIJrZHzXqvzaS4Rx_SGX9IVlxA,BRUNO Cafe in the Park,Lifestyle_Proxy,Pet_Cafe,-6.288882099999999,106.8235973,"Gripastudio, Sunshine Park, Jl. Griya Tapa Jl. Taman Margasatwa Raya No.9G, Ragunan, Pasar Minggu, South Jakarta City, Jakarta 12550, Indonesia","Sunshine Park, Gripastudio, Jl. Griya Tapa Jl. Taman Margasatwa Raya No.9G",4.6,890,https://campsite.bio/bruno.cafeinthepark/,0896-8329-8600,$$,,True,Kemang_Demo,pet cafe,False,2025-08-05T01:31:54.290223
ChIJSfWGDm_xaS4RaKbPE1fH0JE,Ohana Cafe and Kitchen,Lifestyle_Proxy,Pet_Cafe,-6.2935495,106.800662,"Jl. Intan No.8B, RT.7/RW.2, Cilandak Bar., Kec. Cilandak, Kota Jakarta Selatan, Daerah Khusus Ibukota Jakarta 12430, Indonesia","Jl. Intan No.8B, RT.7/RW.2, Cilandak Bar., Kota Jakarta Selatan",4.6,216,https://instagram.com/ohanacafejkt,(021) 27841863,,,True,Kemang_Demo,pet cafe,False,2025-08-05T01:31:54.815278
ChIJ-bHg2jjzaS4RsPs4DmHCR5Y,Friends With Bru | One Satrio,Lifestyle_Proxy,Pet_Cafe,-6.2260233,106.8263454,"CBD, Jl. Mega Kuningan Tim. Jl. Prof. DR. Satrio No.Kav. E 1, RT.5/RW.3, Kuningan, Kecamatan Setiabudi, Kota Jakarta Selatan, Daerah Khusus Ibukota Jakarta 12949, Indonesia","CBD, Jl. Mega Kuningan Tim. Jl. Prof. DR. Satrio No.Kav. E 1, RT.5/RW.3, Kuningan, Kota Jakarta Selatan",4.5,43,http://lynk.id/friendswithbru,,,,True,Kemang_Demo,pet cafe,,2025-08-05T01:31:55.160184
ChIJrxQ45X7xaS4RHH5b8A1WCqQ,The Cat Cabin,Lifestyle_Proxy,Pet_Cafe,-6.255254799999999,106.8141571,"Jl. Kemang Raya No.31, RT.13/RW.1, Bangka, Kec. Mampang Prpt., Kota Jakarta Selatan, Daerah Khusus Ibukota Jakarta 12720, Indonesia","Jl. Kemang Raya No.31, RT.13/RW.1, Bangka, Kota Jakarta Selatan",4.4,725,,(021) 71795243,$$,,True,Kemang_Demo,pet cafe,False,2025-08-05T01:31:54.115905
ChIJ5RLToMLzaS4RJ7ZYGD2bGuY,Frenchie Cafe,Lifestyle_Proxy,Pet_Cafe,-6.240411600000001,106.8511869,"Jl. Tebet Barat XI PAV No.3, RT.8/RW.5, Tebet Bar., Kec. Tebet, Kota Jakarta Selatan, Daerah Khusus Ibukota Jakarta 12810, Indonesia","Jl. Tebet Barat XI PAV No.3, RT.8/RW.5, Tebet Bar., Kota Jakarta Selatan",4.4,281,https://www.instagram.com/frenchiecafe/,0878-2044-1800,,,True,Kemang_Demo,pet cafe,False,2025-08-05T01:31:54.647840
ChIJrxjVrTPzaS4RdzlLV-w0sBw,Common Grounds at COMO Park,Lifestyle_Proxy,Pet_Cafe,-6.2725401,106.821247,"Jl. Kemang Timur No.15 998, RT.1/RW.3, Bangka, Kec. Mampang Prpt., Jakarta, Daerah Khusus Ibukota Jakarta 12730, Indonesia","Jl. Kemang Timur No.15 998, RT.1/RW.3, Bangka, Jakarta",4.4,92,https://www.commongrounds.co.id/,0819-1111-6669,,,True,Kemang_Demo,pet cafe,False,2025-08-05T01:31:54.995229
