place_id,name,category,sub_category,latitude,longitude,address,vicinity,rating,review_count,website,phone,price_level,types,is_operational,search_zone,search_keyword,is_open_now,timestamp
ChIJ-c2qI-H1aS4R5DfcItzTqjo,66KBET,Affluence_Proxy,Country_Club,-6.199542,106.8947011,"Jl. Nilam Raya, Rawamangun, Kec. Pulo Gadung, Kota Jakarta Timur, Daerah Khusus Ibukota Jakarta 13220, Indonesia","Jl. Nilam Raya, Rawamangun, Kota Jakarta Timur",,0,https://heylink.me/senju33.me,0821-8986-4220,,"point_of_interest, establishment",True,Central_Jakarta_Core,country club,True,2025-08-05T10:03:21.205849
ChIJxbGN6crvaS4R9hobrs8BvVs,Demangsewu,Affluence_Proxy,Country_Club,-6.3145726,106.7414167,"Jl. Aria putra gg. Swadaya RT. 12/10 No. 16, Kedaung, Kec. Pamulang, Kota Tangerang Selatan, Banten 15415, Indonesia","Jl. Aria putra gg. Swadaya RT. 12/10 No. 16, Kedaung, Kota Tangerang Selatan",,0,,0896-1054-5327,,"point_of_interest, establishment",True,South_Jakarta_Pondok_Indah,country club,True,2025-08-05T10:08:08.462172
ChIJYbtgI1f3aS4RR4WFjGPhnRg,Jual pulsa terdekat visha,Affluence_Proxy,Country_Club,-6.13852,106.7648636,"Jl. Kapuk Muara No.rt01/05, Kapuk Muara, Kecamatan Penjaringan, Jakarta, Daerah Khusus Ibukota Jakarta 14460, Indonesia","Jl. Kapuk Muara No.rt01/05, Kapuk Muara, Jakarta",,0,,0831-9625-6489,,"point_of_interest, establishment",True,West_Jakarta_Taman_Anggrek,country club,True,2025-08-05T10:16:42.989848
ChIJB1GEfgD3aS4RrRujFAzkB-U,ROYAL CLUB,Affluence_Proxy,Country_Club,-6.1958535,106.8051326,"Jl. K.S. Tubun No.91, RT.1/RW.4, Petamburan, Kecamatan Tanah Abang, Kota Jakarta Pusat, Daerah Khusus Ibukota Jakarta 11410, Indonesia","Jl. K.S. Tubun No.91, RT.1/RW.4, Petamburan, Kota Jakarta Pusat",5,1,,,,"point_of_interest, establishment",True,Central_Jakarta_Core,country club,,2025-08-05T10:03:20.728038
ChIJJTwNKmT1aS4ROBRh9G050yM,HERBUD KAGAMA 4X4,Affluence_Proxy,Country_Club,-6.199471,106.8958535,"Jl. Gurame No.25, RT.4/RW.6, Jati, Kec. Pulo Gadung, Kota Jakarta Timur, Daerah Khusus Ibukota Jakarta 13220, Indonesia","Jl. Gurame No.25, RT.4/RW.6, Jati, Kota Jakarta Timur",5,2,,0852-1583-2223,,"point_of_interest, establishment",True,Central_Jakarta_Core,country club,True,2025-08-05T10:03:20.880424
ChIJnz80lw4dai4RBSvTT17vWwg,Pluit dalam kost,Affluence_Proxy,Country_Club,-6.1298297,106.8005469,"Jl. Pluit Dalam No.19, RT.14/RW.16, Penjaringan, Kecamatan Penjaringan, Jkt Utara, Daerah Khusus Ibukota Jakarta 14440, Indonesia","Jl. Pluit Dalam No.19, RT.14/RW.16, Penjaringan, Jkt Utara",5,3,,0812-9827-6120,,"point_of_interest, establishment",True,Central_Jakarta_Core,country club,True,2025-08-05T10:03:21.372262
ChIJA8HEvT8dai4RQE3nq96id0U,Golf House Proshop - Pantai Indah Kapuk,Affluence_Proxy,Country_Club,-6.1148598,106.7454385,"Pro Shop Pantai Indah Kapuk & Country Club, JL. Pantai Indah Barat, Kapuk, RT.7/RW.2, Kamal Muara, Kecamatan Penjaringan, Jkt Utara, Daerah Khusus Ibukota Jakarta 13530, Indonesia","Pro Shop Pantai Indah Kapuk & Country Club, JL. Pantai Indah Barat, Kapuk, RT.7/RW.2, Kamal Muara, Jkt Utara",4.6,93,,(021) 5882054,,"point_of_interest, establishment",True,West_Jakarta_Grogol,country club,,2025-08-05T10:15:26.853293
ChIJE396LfrzaS4Rjl3_YRZuOAc,Elite Club,Affluence_Proxy,Country_Club,-6.2200944,106.8344989,"Jl. Epicentrum Utama Raya No.kavling c22, Karet Kuningan, Kecamatan Setiabudi, Kota Jakarta Selatan, Daerah Khusus Ibukota Jakarta 12940, Indonesia","Jl. Epicentrum Utama Raya No.kavling c22, Karet Kuningan, Kota Jakarta Selatan",4.5,804,https://eliteclub.co.id/,0822-9944-2230,,"gym, night_club, bar, health, point_of_interest, school, establishment",True,Central_Jakarta_Core,country club,True,2025-08-05T10:03:21.047612
ChIJn5uqaWLxaS4REvvp4oPUlmQ,The American Club Jakarta,Affluence_Proxy,Country_Club,-6.2554479,106.8070261,"Jl. Brawijaya IV No.20, RT.5/RW.3, Pulo, Kec. Kby. Baru, Kota Jakarta Selatan, Daerah Khusus Ibukota Jakarta 12160, Indonesia","Jl. Brawijaya IV No.20, RT.5/RW.3, Pulo, Kota Jakarta Selatan",4.4,229,http://americanclubjakarta.org/,(021) 7264560,,"point_of_interest, establishment",True,Central_Jakarta_South,country club,True,2025-08-05T10:05:14.021827
ChIJqZpZM1j3aS4Rp20faIZ-37U,Anwa Victory club,Affluence_Proxy,Country_Club,-6.209140499999999,106.7260336,"Jl. Taman Palem Raya, perumahan taman villa meruya Blok D.1 No.1, Meruya Sel., Kec. Kembangan, Kota Jakarta Barat, Daerah Khusus Ibukota Jakarta 11650, Indonesia","Jl. Taman Palem Raya, perumahan taman villa meruya Blok D.1 No.1, Meruya Sel., Kota Jakarta Barat",4.4,695,,(021) 5858982,,"point_of_interest, establishment",True,West_Jakarta_Kebon_Jeruk,country club,True,2025-08-05T10:14:04.019131
ChIJIRV8lYTzaS4RAGZNvASXy_Y,PAGUYUBAN SINGA TEBET,Affluence_Proxy,Country_Club,-6.224925799999999,106.8581072,"1, Jl. Lapangan Ros Utara No.11, RT.1/RW.6, Bukit Duri, Kec. Tebet, Kota Jakarta Selatan, Daerah Khusus Ibukota Jakarta 12840, Indonesia","1, Jl. Lapangan Ros Utara No.11, RT.1/RW.6, Bukit Duri, Kota Jakarta Selatan",4.3,6,,0812-8517-9663,,"point_of_interest, establishment",True,Central_Jakarta_Core,country club,True,2025-08-05T10:03:20.573839
ChIJzw13AuHyaS4RJfE-TzjUMr8,Executive Club Persada,Affluence_Proxy,Country_Club,-6.2592496,106.8863671,"Jl. Raya Protokol Halim Perdanakusuma, Halim Perdanakusuma, Kec. Makasar, Kota Jakarta Timur, Daerah Khusus Ibukota Jakarta 13610, Indonesia","Jl. Raya Protokol Halim Perdanakusuma, Halim Perdanakusuma, Kota Jakarta Timur",4.3,3209,http://www.klubeksekutifpersada.com/,0811-8258-127,,"cafe, gym, health, point_of_interest, food, establishment",True,Central_Jakarta_South,country club,True,2025-08-05T10:05:13.862282
ChIJ97NKCC7xaS4RIJ_fonERwHY,Yayasan The British Int School,Affluence_Proxy,International_School,-6.223868599999999,106.7815224,"QQGJ+FJ2, Jl. Permata Intan, RT.14/RW.2, Bl U%2F1, Grogol Utara, Kec. Kby. Lama, Kota Jakarta Selatan, Daerah Khusus Ibukota Jakarta 12220, Indonesia","QQGJ+FJ2, Jl. Permata Intan, RT.14/RW.2, Bl U%2F1, Grogol Utara, Kota Jakarta Selatan",,0,,(021) 5304353,,"school, point_of_interest, establishment",False,Central_Jakarta_Core,british school,,2025-08-05T10:02:29.153077
ChIJcdwfb8vxaS4RUaWicwu6va4,British Islamic Boarding School,Affluence_Proxy,International_School,-6.235147,106.7989069,"Jl. Sisingamangaraja No.2, RT.2/RW.6, Gunung, Kec. Kby. Baru, Kota Jakarta Selatan, Daerah Khusus Ibukota Jakarta 12120, Indonesia","Jl. Sisingamangaraja No.2, RT.2/RW.6, Gunung, Kota Jakarta Selatan",,0,,,,"point_of_interest, establishment",True,Central_Jakarta_South,british school,,2025-08-05T10:04:34.388987
ChIJc6TESADxaS4Rm8n9tkcWLcU,BINTARO,Affluence_Proxy,International_School,-6.2863851,106.7455546,"British School, Parigi, Kec. Ciputat Tim., Kota Tangerang Selatan, Banten, Indonesia","British School, Parigi, Kota Tangerang Selatan",,0,,,,"point_of_interest, establishment",True,South_Jakarta_Cilandak,british school,,2025-08-05T10:12:34.356112
ChIJS4GSg5L3aS4Rw0P9BrCQwf4,British Course The,Affluence_Proxy,International_School,-6.1613374,106.7360932,"Jl. Bambu Betung V No.15 6, RT.6/RW.5, Rw. Buaya, Kecamatan Cengkareng, Kota Jakarta Barat, Daerah Khusus Ibukota Jakarta 11740, Indonesia","Jl. Bambu Betung V No.15 6, RT.6/RW.5, Rw. Buaya, Kota Jakarta Barat",,0,,(021) 5813477,,"school, point_of_interest, establishment",True,West_Jakarta_Kebon_Jeruk,british school,,2025-08-05T10:13:39.928573
ChIJrVo7OOsdai4RKe1M6Y2Ex4g,Bina Tunas Bangsa School,Affluence_Proxy,International_School,-6.1233562,106.8002306,"Jl. Pluit Timur Blok MM, Pluit, Kecamatan Penjaringan, Jkt Utara, Daerah Khusus Ibukota Jakarta 14450, Indonesia","Apartemen Laguna, Jl. Pluit Timur Blok MM, Pluit, Jkt Utara",,0,http://www.btbschool.org/,(021) 6698888,,"primary_school, secondary_school, school, point_of_interest, establishment",True,West_Jakarta_Taman_Anggrek,british school,True,2025-08-05T10:16:17.159008
ChIJE-MEnRseai4RYvo1AaxvmFc,Bunda Mulia School (SPK),Affluence_Proxy,International_School,-6.1293564,106.8183819,"Jl. Lodan Raya No.2, RT.12/RW.2, Ancol, Kec. Pademangan, Jkt Utara, Daerah Khusus Ibukota Jakarta 14430, Indonesia","Jl. Lodan Raya No.2, RT.12/RW.2, Ancol, Jkt Utara",,0,https://bundamulia.sch.id/,(021) 6909742,,"school, point_of_interest, establishment",True,West_Jakarta_Taman_Anggrek,british school,True,2025-08-05T10:16:17.302637
ChIJf8sBzIeLaS4R993Fkq2HJHk,Bimbel Cerdas Private SD& Pra SD,Affluence_Proxy,International_School,-6.199027,106.9199665,"Kp.pulojahe RT 02/ Rw 10 Gang Empang Dekat kantor Pos RT 02, RT.2/RW.10, Jatinegara, Kec. Cakung, Kota Jakarta Timur, Daerah Khusus Ibukota Jakarta 13930, Indonesia","Kp.pulojahe RT 02/ Rw 10 Gang Empang Dekat kantor Pos RT 02, RT.2/RW.10, Jatinegara, Kota Jakarta Timur",5,6,,0858-1337-7732,,"school, point_of_interest, establishment",True,Central_Jakarta_South,british school,False,2025-08-05T10:04:34.249629
ChIJiZ5HDsfzaS4R3zO4MmEjo00,Indonesian-British School Of Communications,Affluence_Proxy,International_School,-6.244329,106.839469,"Jl. Jend Gatot Subroto Kav 72 Pancoran Pancoran Jakarta Selatan DKI Jakarta, RT.3/RW.4, Pancoran, Kec. Pancoran, Kota Jakarta Selatan, Daerah Khusus Ibukota Jakarta 12780, Indonesia","Jl. Jend Gatot Subroto Kav 72 Pancoran Pancoran Jakarta Selatan DKI Jakarta, RT.3/RW.4, Pancoran, Kota Jakarta Selatan",5,1,http://www.kompas.tv/live,(021) 79196330,,"point_of_interest, establishment",True,Central_Jakarta_South,british school,True,2025-08-05T10:04:34.535539
ChIJtXNGq8bxaS4RdzvUpuG5vEc,TBI - The Britsh Institute Pondok Indah & Kuningan,Affluence_Proxy,International_School,-6.2843336,106.7892879,"Jl. Terogong Raya Kelurahan No.32, RT.3/RW.6, Cilandak Bar., Kec. Cilandak, Kota Jakarta Selatan, Daerah Khusus Ibukota Jakarta 12430, Indonesia","Jl. Terogong Raya Kelurahan No.32, RT.3/RW.6, Cilandak Bar., Kota Jakarta Selatan",5,43,https://www.usg.education/tbi,(021) 7510020,,"point_of_interest, school, establishment",True,South_Jakarta_Kemang,british school,True,2025-08-05T10:06:17.908809
ChIJvXP7ZdbzaS4RJTWhiZSzEpQ,PT. Paradigma Lintas Semesta (PARADIGM),Affluence_Proxy,International_School,-6.1983427,106.8416784,"Gedung Permata Cikini, Jl. Pegangsaan Timur No.7, Pegangsaan, Kec. Menteng, Kota Jakarta Pusat, Daerah Khusus Ibukota Jakarta 10320, Indonesia","Gedung Permata Cikini, Jl. Pegangsaan Timur No.7, Pegangsaan, Kota Jakarta Pusat",5,229,http://www.paradigm.co.id/,(021) 23599123,,"restaurant, food, point_of_interest, establishment",True,South_Jakarta_Kemang,british school,True,2025-08-05T10:06:18.239387
ChIJpdq1JDn3aS4RnpfhgfKARq8,Briton Education Mercu Buana Student Language & Support Centre (SLSC),Affluence_Proxy,International_School,-6.2110015,106.7369249,"Jl. H. Juhri No.1, RT.1/RW.8, Meruya Sel., Kec. Kembangan, Kota Jakarta Barat, Daerah Khusus Ibukota Jakarta 11650, Indonesia","Jl. H. Juhri No.1, RT.1/RW.8, Meruya Sel., Kota Jakarta Barat",5,33,http://www.britonenglish.co.id/,0813-6327-1313,,"school, point_of_interest, establishment",True,West_Jakarta_Kebon_Jeruk,british school,True,2025-08-05T10:13:39.776165
ChIJ_5v1ldLxaS4RSiZldxFO5TU,Ceria Montessori School,Affluence_Proxy,International_School,-6.2328166,106.7930306,"Jl. Martimbang I No.1, RW.5, Gunung, Kec. Kby. Baru, Kota Jakarta Selatan, Daerah Khusus Ibukota Jakarta 12120, Indonesia","Jl. Martimbang I No.1, RW.5, Gunung, Kota Jakarta Selatan",4.9,36,http://ceriamontessori.com/,(021) 73910000,,"school, point_of_interest, establishment",True,Central_Jakarta_South,british school,True,2025-08-05T10:04:34.698712
ChIJvxJ0jRz0aS4RrhVDJ26K4uI,IBEC (Indonesia Britain Education Centre),Affluence_Proxy,International_School,-6.203656500000001,106.8205419,"Jalan Jend. Sudirman Kav. 1 Wisma BNI 46 Lantai 34 Setiabudi, RT.10/RW.11, Karet Tengsin, Kecamatan Tanah Abang, Kota Jakarta Selatan, Daerah Khusus Ibukota Jakarta 10250, Indonesia","Jalan Jend. Sudirman Kav. 1 Wisma BNI 46 Lantai 34 Setiabudi, RT.10/RW.11, Karet Tengsin, Kota Jakarta Selatan",4.8,15,http://www.ibec.or.id/,(021) 5742113,,"point_of_interest, establishment",True,South_Jakarta_Kemang,british school,True,2025-08-05T10:06:18.077412
ChIJy-_9uUX1aS4Rgbp5Zq8TbEk,The British Institute,Affluence_Proxy,International_School,-6.168685099999999,106.9217183,"Jl. Sedayu Boulevard Raya No.1, Rawa Terate, Cakung, East Jakarta City Jakarta 13910, Rawa Terate, Cakung, East Jakarta City, Jakarta 13920, Indonesia","Jl. Sedayu Boulevard Raya No.1, Rawa Terate, Cakung, East Jakarta City Jakarta 13910, East Jakarta City",4.8,26,https://www.instagram.com/tbikelapagading,0858-8242-5835,,"point_of_interest, establishment",True,North_Jakarta_Kelapa_Gading,british school,True,2025-08-05T10:18:28.824267
ChIJWb28JEL0aS4RlYnJjOnY_Ok,Lembaga Bahasa Internasional,Affluence_Proxy,International_School,-6.1939981,106.8486442,"Gedung Rektorat Lama Kampus UI Salemba, JL Salemba Raya, No. 4, Kenari Senen, RW.5, Kenari, Jakarta Pusat, Kota Jakarta Pusat, Daerah Khusus Ibukota Jakarta 10430, Indonesia","Gedung Rektorat Lama Kampus UI Salemba, JL Salemba Raya, No. 4, Kenari Senen, RW.5, Kenari, Kota Jakarta Pusat",4.4,82,http://lbifib.ui.ac.id/,(021) 31902112,,"point_of_interest, establishment",True,West_Jakarta_Taman_Anggrek,british school,True,2025-08-05T10:16:16.996669
ChIJT0vhNUXxaS4RZD0tFMmpDT8,British Council Indonesia Foundation - IELTS Test Centre,Affluence_Proxy,International_School,-6.2294728,106.805683,"Office 8 Building 9th Floor Sudirman Central Business District (SCBD) Lot 28 Jalan Jendral sudirman kav 52-53, Jl. Senopati Raya No.8B, RT.8/RW.3, Senayan, Kec. Kby. Baru, Kota Jakarta Selatan, Daerah Khusus Ibukota Jakarta 12190, Indonesia","Office 8 Building 9th Floor Sudirman Central Business District (SCBD) Lot 28 Jalan Jendral sudirman kav 52-53, Jl. Senopati Raya No.8B, RT.8/RW.3, Senayan, Kota Jakarta Selatan",4.3,360,https://www.britishcouncilfoundation.id/en/exam,(021) 30002480,,"point_of_interest, establishment",True,Central_Jakarta_Core,british school,True,2025-08-05T10:02:28.851493
ChIJE1j4M07xaS4RSSeovyjg32E,Brazilian Soccer Schools Indonesia,Affluence_Proxy,International_School,-6.225451199999999,106.8051631,"ABDA, Plaza Asia, Jl. Jenderal Sudirman Lantai 26, RT.5/RW.3, Senayan, Kebayoran Baru, South Jakarta City, Jakarta 12190, Indonesia","ABDA, Plaza Asia, Jl. Jenderal Sudirman Lantai 26, RT.5/RW.3, Senayan, South Jakarta City",4.3,31,http://www.bssindonesia.co.id/,(021) 51401679,,"school, point_of_interest, establishment",True,Central_Jakarta_South,british school,,2025-08-05T10:04:35.002935
ChIJuwPdjLrxaS4RFVeUpWz6isI,BRITISH INT'L SCHOOL,Affluence_Proxy,International_School,-6.2718346,106.7838654,"PQHM+7G9, RT.1/RW.16, Pondok Pinang, Kebayoran Lama, South Jakarta City, Jakarta 12310, Indonesia","PQHM+7G9, RT.1/RW.16, Pondok Pinang, South Jakarta City",3.5,2,,,,"school, point_of_interest, establishment",False,South_Jakarta_Pondok_Indah,british school,,2025-08-05T10:07:43.643979
ChIJVXRPkvfzaS4Rw-GXNloq_gM,The British Institute Kuningan,Affluence_Proxy,International_School,-6.210545,106.829596,"Jl. H. R. Rasuna Said No.Kav B, RT.5/RW.1, Kuningan, Karet Kuningan, Jakarta, Kota Jakarta Selatan, Daerah Khusus Ibukota Jakarta 12940, Indonesia","Jl. H. R. Rasuna Said No.Kav B, RT.5/RW.1, Kuningan, Karet Kuningan, Kota Jakarta Selatan",2.8,5,http://www.tbi.co.id/,(021) 30027988,,"point_of_interest, establishment",True,Central_Jakarta_Core,british school,True,2025-08-05T10:02:29.013818
ChIJB2vSFAz1aS4RXArYaDcovQw,BMW Astra Used Car Sunter,Affluence_Proxy,Luxury_Dealer,-6.1400583,106.8845909,"Jl. Gaya Motor Raya No.1, Sunter II, Kec. Tj. Priok, Jkt Utara, Daerah Khusus Ibukota Jakarta 14330, Indonesia","Jl. Gaya Motor Raya No.1, Sunter II, Jkt Utara",,0,https://bmw.astra.co.id/pre-owned/,(021) 65835226,,"point_of_interest, car_dealer, store, establishment",True,Central_Jakarta_Core,bmw dealer,True,2025-08-05T10:03:47.820096
ChIJk0b0YgD1aS4RVXqGxCqNjSs,BMW THAMRIN JAKARTA PUSAT,Affluence_Proxy,Luxury_Dealer,-6.1992496,106.8220163,"Jl. M.H. Thamrin No.10, Kb. Melati, Kecamatan Tanah Abang, Kota Jakarta Pusat, Daerah Khusus Ibukota Jakarta 10230, Indonesia","Thamrin Nine, Jl. M.H. Thamrin No.10, Kb. Melati, Kota Jakarta Pusat",,0,,0812-6636-6839,,"point_of_interest, car_dealer, store, establishment",True,Central_Jakarta_Core,bmw dealer,True,2025-08-05T10:03:47.968011
ChIJ0QpB97_1aS4Re_TDt1-fJsg,BMW Tunas Certified Pre-Owned Hayam Wuruk,Affluence_Proxy,Luxury_Dealer,-6.1587324,106.8190904,"Jl. Hayam Wuruk No.51, RT.7/RW.7, Maphar, Kec. Taman Sari, Maphar, Barat, Kota Jakarta Barat, Daerah Khusus Ibukota Jakarta 11160, Indonesia","Jl. Hayam Wuruk No.51, RT.7/RW.7, Maphar, Kec. Taman Sari, Kota Jakarta Barat",,0,https://www.bmw-tunas.co.id/bmw-used-cars/,(021) 6495550,,"point_of_interest, car_dealer, store, establishment",True,Central_Jakarta_Core,bmw dealer,True,2025-08-05T10:03:48.114219
ChIJRVqvegnzaS4R4B5L3FXfDFo,Bengkel Service dan kaki kaki Angkasa Motor,Affluence_Proxy,Luxury_Dealer,-6.2351661,106.8916786,"Ps. Mobil Kemayoran, Blk. N No.11 Pintu 8, Cipinang Muara, Kecamatan Jatinegara, Kota Jakarta Timur, Daerah Khusus Ibukota Jakarta 10610, Indonesia","Ps. Mobil Kemayoran, Blk. N No.11 Pintu 8, Cipinang Muara, Kota Jakarta Timur",,0,,0813-8504-9155,,"point_of_interest, car_dealer, store, establishment",True,Central_Jakarta_Core,bmw dealer,True,2025-08-05T10:03:48.744848
ChIJIdIm4cvxaS4RgIMkBJRFh_M,Luxury Cars Dealer,Affluence_Proxy,Luxury_Dealer,-6.2493392,106.7927507,"Jl. Kramat Pela Raya No.31, RT.1/RW.4, Kramat Pela, Kec. Kby. Baru, Kota Jakarta Selatan, Daerah Khusus Ibukota Jakarta 12140, Indonesia","Jl. Kramat Pela Raya No.31, RT.1/RW.4, Kramat Pela, Kota Jakarta Selatan",,0,,0811-1693-082,,"point_of_interest, establishment",True,Central_Jakarta_South,luxury car dealer,True,2025-08-05T10:05:29.525984
ChIJm_Tp6vTxaS4RAGnDKDY5njk,Automotive Luxury Car by Stephanie,Affluence_Proxy,Luxury_Dealer,-6.2605757,106.7970979,"Jl. RS. Fatmawati Raya No.42, RT.4/RW.5, Cipete Sel., Kec. Cilandak, Kota Jakarta Selatan, Daerah Khusus Ibukota Jakarta 12430, Indonesia","Jl. RS. Fatmawati Raya No.42, RT.4/RW.5, Cipete Sel., Kota Jakarta Selatan",,0,,0857-1893-3658,,"car_dealer, store, point_of_interest, establishment",True,Central_Jakarta_South,luxury car dealer,,2025-08-05T10:05:30.819613
ChIJcQjJcijzaS4R18DY5lRP0LU,Albert Christian - BMWNew.id,Affluence_Proxy,Luxury_Dealer,-6.2929524,106.7897722,"Jl. R.A. Kartini No.Kav 203, RT.11/RW.4, Cilandak Bar., Kec. Cilandak, Kota Jakarta Selatan, Daerah Khusus Ibukota Jakarta 12430, Indonesia","Jl. R.A. Kartini No.Kav 203, RT.11/RW.4, Cilandak Bar., Kota Jakarta Selatan",,0,,,,"car_dealer, store, point_of_interest, establishment",True,South_Jakarta_Kemang,bmw dealer,True,2025-08-05T10:06:59.831510
ChIJ29wMmDbxaS4RMR6Yx81y9Ww,TDA Motorsport,Affluence_Proxy,Luxury_Dealer,-6.2436789,106.8032808,"Jl. Kramat Pela Jl. Iskandarsyah Raya No.31, Melawai, Kec. Kby. Baru, jakarta, Daerah Khusus Ibukota Jakarta 12130, Indonesia","Jl. Kramat Pela Jl. Iskandarsyah Raya No.31, Melawai, jakarta",,0,,0817-700-766,,"car_dealer, store, point_of_interest, establishment",True,South_Jakarta_Kemang,porsche,True,2025-08-05T10:07:00.996209
ChIJvW0y8_X2aS4RmHROqpSVTQc,Porsche Destination Charging,Affluence_Proxy,Luxury_Dealer,-6.17798,106.7898,"KAV. 28, Letjen S. Parman, Tj. Duren Sel., Kec. Grogol petamburan, Kota Jakarta Barat, Daerah Khusus Ibukota Jakarta 11470, Indonesia","KAV. 28, Central Park Office, Letjen S. Parman, South Tanjung Duren, West Jakarta City",,0,https://www.porsche.com/,(021) 29200088,,"point_of_interest, establishment",True,North_Jakarta_PIK,porsche,True,2025-08-05T10:17:46.950788
ChIJu6bjtqT1aS4RxXCDjJzsFkA,Euromobil Indonesia. PT,Affluence_Proxy,Luxury_Dealer,-6.1757371,106.8124767,"Jl. Tanah Abang II No.83 1, RT.1/RW.4, Petojo Sel., Kecamatan Gambir, Kota Jakarta Pusat, Daerah Khusus Ibukota Jakarta 10160, Indonesia","Jl. Tanah Abang II No.83 1, RT.1/RW.4, Petojo Sel., Kota Jakarta Pusat",5,16,,(021) 3854827,,"car_dealer, point_of_interest, store, establishment",True,Central_Jakarta_Core,luxury car dealer,True,2025-08-05T10:03:44.156121
ChIJtX4bTVsdai4Rr28vCqLP3Sw,Denza Haka Pluit,Affluence_Proxy,Luxury_Dealer,-6.125482,106.7971385,"Jl. Pluit Selatan Raya No.8A 2, Penjaringan, Kecamatan Penjaringan, Jkt Utara, Daerah Khusus Ibukota Jakarta 14440, Indonesia","Jl. Pluit Selatan Raya No.8A 2, Penjaringan, Jkt Utara",5,234,,0811-7777-7234,,"car_dealer, point_of_interest, store, establishment",True,Central_Jakarta_Core,luxury car dealer,True,2025-08-05T10:03:44.816666
ChIJK25UF2vzaS4RFn2U56CDSpg,MARKETING BMW TEBET,Affluence_Proxy,Luxury_Dealer,-6.2302889,106.846378,"Jl. Prof. DR. Soepomo No.174, Menteng Dalam, Kec. Tebet, Jakarta, Daerah Khusus Ibukota Jakarta 12870, Indonesia","Jl. Prof. DR. Soepomo No.174, Menteng Dalam, Jakarta",5,2,http://officialbmwcenter.com/,0856-6500-508,,"point_of_interest, car_dealer, store, establishment",True,Central_Jakarta_Core,bmw dealer,True,2025-08-05T10:03:47.355784
ChIJ7UpM3AhmTUARnKUZv0AcQ3c,BMW INDONESIA || BMW TEBET || BMW INDONESIA || DEALER BMW || HARGA BMW TEBET || BMW HAYAM WURUK,Affluence_Proxy,Luxury_Dealer,-6.2304892,106.8467546,"Jl dr prof Soepomo No.174, Menteng Dalam, Kec. Tebet, Kota Jakarta Selatan, Daerah Khusus Ibukota Jakarta 12870, Indonesia","Jl dr prof Soepomo No.174, Menteng Dalam, Kota Jakarta Selatan",5,1,http://bmw-official.co.id/,0812-8181-6521,,"point_of_interest, car_dealer, store, establishment",True,Central_Jakarta_Core,bmw dealer,True,2025-08-05T10:03:47.514813
ChIJb3VBRUqVaS4RUe9eAcNsBZk,KIKI BMW CONSULTANT,Affluence_Proxy,Luxury_Dealer,-6.1597264,106.7625877,"Jl. Panjang No.6, Kedaung Kali Angke, Kecamatan Cengkareng, Kota Jakarta Barat, Daerah Khusus Ibukota Jakarta 11710, Indonesia","Jl. Panjang No.6, Kedaung Kali Angke, Kota Jakarta Barat",5,44,https://www.yourbmwconsultant.id/,0819-9841-6651,,"point_of_interest, car_dealer, store, establishment",True,Central_Jakarta_Core,bmw dealer,True,2025-08-05T10:03:47.675554
ChIJqSE7htTzaS4RnC8WspFR41Y,Harga BMW Terbaik,Affluence_Proxy,Luxury_Dealer,-6.2208106,106.8501013,"Jl. Albarkah No.57B 8, RT.8/RW.5, Manggarai Sel., Kec. Tebet, Jakarta, Daerah Khusus Ibukota Jakarta 12860, Indonesia","Jl. Albarkah No.57B 8, RT.8/RW.5, Manggarai Sel., Jakarta",5,28,http://www.hargabmw.co.id/,0812-6827-9002,,"car_dealer, point_of_interest, store, establishment",True,Central_Jakarta_Core,bmw dealer,True,2025-08-05T10:03:48.443201
ChIJx3CRvi_1aS4R2Wg7GGvgkXs,Supreme Auto Gallery,Affluence_Proxy,Luxury_Dealer,-6.1484312,106.8887362,"Jl Yos Sudarso kav 87-88, Bursa Otomotif Sunter blok G 20, Sunter Jaya, Kec. Tj. Priok, Sunter, Daerah Khusus Ibukota Jakarta 14350, Indonesia","Jl Yos Sudarso kav 87-88, Bursa Otomotif Sunter blok G 20, Sunter",5,1,,0815-3600-0000,,"car_dealer, point_of_interest, store, establishment",True,Central_Jakarta_Core,bmw dealer,True,2025-08-05T10:03:48.598915
ChIJnxKGep3xaS4RaZvTDJsUubM,PORSMOTOR Porsche Specialist by PORSWERKS,Affluence_Proxy,Luxury_Dealer,-6.2194895,106.7604052,"Jl. Swadarma Raya No.33, Srengseng, Kec. Kembangan, Kota Jakarta Barat, Daerah Khusus Ibukota Jakarta 11630, Indonesia","Jl. Swadarma Raya No.33, Srengseng, Kota Jakarta Barat",5,315,https://porsmotor.id/,0819-0883-2229,,"car_repair, point_of_interest, establishment",True,Central_Jakarta_Core,porsche,True,2025-08-05T10:03:49.552088
ChIJhzWlv3_zaS4RBvG7Et9YvTM,PT. KANAKA AUTO PARTS,Affluence_Proxy,Luxury_Dealer,-6.2397503,106.8241498,"Gedung Menara Tendean (M-TEN), Lantai 17 Unit C, Jl. Kapten Tendean. 20C RT4/RW 3. Kel. Kuningan Barat, Kec.Mampang Prapatan, Jakarta Selatan, Kuningan Bar., Kec. Mampang Prpt., Jakarta, Daerah Khusus Ibukota Jakarta 12710, Indonesia","Gedung Menara Tendean (M-TEN), Lantai 17 Unit C, Jl. Kapten Tendean. 20C RT4/RW 3. Kel. Kuningan Barat, Kec.Mampang Prapatan, Jakarta Selatan, Jakarta",5,62,,0812-8781-6804,,"point_of_interest, establishment",True,Central_Jakarta_Core,porsche,True,2025-08-05T10:03:49.716952
ChIJ5RBMuvX2aS4RwKxzwAK54Is,"Wedding Car Rental, Luxury Car Rental Jakarta",Affluence_Proxy,Luxury_Dealer,-6.1746723,106.7865406,"Jl. Tanjung Duren Timur No.11 3, RT.3/RW.5, Tj. Duren Sel., Kec. Grogol petamburan, Kota Jakarta Barat, Daerah Khusus Ibukota Jakarta 11470, Indonesia","Jl. Tanjung Duren Timur No.11 3, RT.3/RW.5, Tj. Duren Sel., Kota Jakarta Barat",5,12,,0818-0777-4798,,"car_rental, point_of_interest, establishment",True,Central_Jakarta_Core,porsche,True,2025-08-05T10:03:50.049140
ChIJe-sYD_7xaS4RgxmlTpGdHYA,AutoWerkstatt VW und Porsche,Affluence_Proxy,Luxury_Dealer,-6.2453676,106.8157557,"Jl. Bangka Raya No.32, RT.2/RW.2, Pela Mampang, Kec. Mampang Prpt., Kota Jakarta Selatan, Daerah Khusus Ibukota Jakarta 12720, Indonesia","Jl. Bangka Raya No.32, RT.2/RW.2, Pela Mampang, Kota Jakarta Selatan",5,14,https://www.instagram.com/autowerkstatt.jkt/,0817-334-388,,"car_repair, point_of_interest, establishment",True,Central_Jakarta_Core,porsche,True,2025-08-05T10:03:50.210855
ChIJpSLSNvfxaS4RoWAJLM7UBOE,Dealer Bmw Pondok Indah,Affluence_Proxy,Luxury_Dealer,-6.2548843,106.7817259,"Jl. Sultan Iskandar Muda No.95, Kby. Lama Sel., Kec. Kby. Lama, Kota Jakarta Selatan, Daerah Khusus Ibukota Jakarta 12240, Indonesia","Jl. Sultan Iskandar Muda No.95, Kby. Lama Sel., Kota Jakarta Selatan",5,10,https://dealerbmwpondokindah.com/,0822-6081-5202,,"car_dealer, store, point_of_interest, establishment",True,Central_Jakarta_South,bmw dealer,True,2025-08-05T10:05:31.895623
ChIJ04f3qOPxaS4RuSUZXaXEKYA,PLAZA BMW PONDOK INDAH,Affluence_Proxy,Luxury_Dealer,-6.249379900000001,106.7815673,"Jl. Sultan Iskandar Muda No.99, Kby. Lama Sel., Kec. Kby. Lama, Kota Jakarta Selatan, Daerah Khusus Ibukota Jakarta 12240, Indonesia","Jl. Sultan Iskandar Muda No.99, Kby. Lama Sel., Kota Jakarta Selatan",5,15,,(021) 38251000,,"store, point_of_interest, establishment",True,Central_Jakarta_South,bmw dealer,True,2025-08-05T10:05:32.056249
ChIJIWZISwD1aS4RXcFuAWSKN8M,Denza Harmony Official Kelapa Gading,Affluence_Proxy,Luxury_Dealer,-6.158782899999999,106.9020313,"Blok XB Jl. Boulevard Bar. Raya No.6, Klp. Gading Bar., Kec. Klp. Gading, Jkt Utara, Daerah Khusus Ibukota Jakarta 14240, Indonesia","Blok XB Jl. Boulevard Bar. Raya No.6, Klp. Gading Bar., Jkt Utara",5,6,http://officialdenzajakarta.com/,0811-1367-167,,"car_dealer, store, point_of_interest, establishment",True,Central_Jakarta_South,bmw dealer,True,2025-08-05T10:05:32.374515
ChIJwZBD1aLzaS4RR8-A52uoa8w,BMW Astra Mampang,Affluence_Proxy,Luxury_Dealer,-6.2674565,106.8305091,"Jl. Buncit Raya No.9, Kalibata, Kec. Pancoran, Kota Jakarta Selatan, Daerah Khusus Ibukota Jakarta 12740, Indonesia","Jl. Buncit Raya No.9, Kalibata, Kota Jakarta Selatan",5,78,https://bmw.astra.co.id/,0811-2501-168,,"car_dealer, store, point_of_interest, establishment",True,Central_Jakarta_South,bmw dealer,,2025-08-05T10:05:32.538120
ChIJIZfPeDrxaS4R4oZkjdC1qS4,Valentino Motor,Affluence_Proxy,Luxury_Dealer,-6.2667676,106.7980081,"Jl. RS. Fatmawati Raya No.42, RT.2/RW.5, Cipete Sel., Kec. Cilandak, Kota Jakarta Selatan, Daerah Khusus Ibukota Jakarta 12410, Indonesia","Jl. RS. Fatmawati Raya No.42, RT.2/RW.5, Cipete Sel., Kota Jakarta Selatan",5,46,http://www.instagram.com/valentinomotor,(021) 75903390,,"car_dealer, point_of_interest, store, establishment",True,South_Jakarta_Kemang,bmw dealer,True,2025-08-05T10:06:58.711378
ChIJ66lOCzDyaS4Rp58K5It-Jl4,Damar Jaya Motor,Affluence_Proxy,Luxury_Dealer,-6.267908299999999,106.8310889,"Jl. Buncit Raya No.36 5, RT.5/RW.5, Kalibata, Kec. Pancoran, Kota Jakarta Selatan, Daerah Khusus Ibukota Jakarta 12740, Indonesia","Jl. Buncit Raya No.36 5, RT.5/RW.5, Kalibata, Kota Jakarta Selatan",5,10,,,,"car_dealer, point_of_interest, store, establishment",True,South_Jakarta_Kemang,bmw dealer,True,2025-08-05T10:06:59.022134
ChIJpxJOQs3xaS4RoP4jhP6wwM8,BMW SIMPRUG || BMW JAKARTA PUSAT || PROMO BMW || DEALER BMW || BMW AML || HARGA BMW || BMW JAKSEL,Affluence_Proxy,Luxury_Dealer,-6.2312942,106.7888525,"Jl. Teuku Nyak Arief, RT.3/RW.2, Grogol Sel., Kec. Kby. Lama, Jakarta, Daerah Khusus Ibukota Jakarta 12220, Indonesia","Jl. Teuku Nyak Arief, RT.3/RW.2, Grogol Sel., Jakarta",5,5,,0896-2450-8156,,"car_dealer, store, point_of_interest, establishment",True,South_Jakarta_Kemang,bmw dealer,False,2025-08-05T10:06:59.347012
ChIJD5aBWQDtaS4RmLpbP6AixPQ,RHM part copotan bmw,Affluence_Proxy,Luxury_Dealer,-6.3015351,106.8467909,"Jl. Swadaya II No.6, RT.7/RW.5, Tj. Bar., Kec. Jagakarsa, Kota Jakarta Selatan, Daerah Khusus Ibukota Jakarta 12530, Indonesia","Jl. Swadaya II No.6, RT.7/RW.5, Tj. Bar., Kota Jakarta Selatan",5,2,,0877-5086-8199,,"store, car_repair, point_of_interest, establishment",True,South_Jakarta_Kemang,bmw dealer,True,2025-08-05T10:06:59.992054
ChIJkb9ks833aS4R2UlfPTVPD04,Bengkel Spesialis Porsche Jakarta,Affluence_Proxy,Luxury_Dealer,-6.2177299,106.7512811,"Jl. Joglo Raya No.20, Joglo, Kec. Kembangan, Kota Jakarta Barat, Daerah Khusus Ibukota Jakarta 11640, Indonesia","Jl. Joglo Raya No.20, Joglo, Kota Jakarta Barat",5,5,,0859-3294-2787,,"point_of_interest, establishment",True,South_Jakarta_Kemang,porsche,True,2025-08-05T10:07:00.851821
ChIJ72NrZ73xaS4Ruv_W1_5hcMI,Autobahn Bintaro,Affluence_Proxy,Luxury_Dealer,-6.280173899999999,106.7253844,"Bursa Mobil Bintaro, Blok A19/A25, Pd. Jaya, Kec. Pd. Aren, Kota Tangerang Selatan, Banten 15220, Indonesia","Bursa Mobil Bintaro, Blok A19/A25, Pd. Jaya, Kota Tangerang Selatan",5,33,https://www.instagram.com/autobahn.id?igsh=ZTM2Nm4zcHNzaXNj,0896-0564-8869,,"car_dealer, store, point_of_interest, establishment",True,South_Jakarta_Pondok_Indah,bmw dealer,True,2025-08-05T10:08:22.295897
ChIJYTs3n8H3aS4RqP0nWLaLSUc,PORSHANGGAR Porsche Specialist by PORSWERKS,Affluence_Proxy,Luxury_Dealer,-6.2192757,106.7266374,"Jl. Joglo Raya No.25, Joglo, Kec. Kembangan, Kota Jakarta Barat, Daerah Khusus Ibukota Jakarta 11640, Indonesia","Jl. Joglo Raya No.25, Joglo, Kota Jakarta Barat",5,248,http://www.porshanggar.id/,0817-6767-322,,"car_repair, point_of_interest, establishment",True,South_Jakarta_Pondok_Indah,porsche,True,2025-08-05T10:08:23.830733
ChIJB_McdTnxaS4Rp-Jy7C_S1g8,BOTOMOTIF,Affluence_Proxy,Luxury_Dealer,-6.2791359,106.7251841,"Jl. Boulevard Bintaro Jaya Raya Sektor 7 No.05 Blok B, Pd. Jaya, Kec. Pd. Aren, Kota Tangerang Selatan, Banten 15220, Indonesia","Blk. A, Jl. Boulevard Bintaro Jaya Raya Sektor 7 No.05 Blok B, Pd. Jaya, Kota Tangerang Selatan",5,14,https://botomotif.com/,0812-9322-8088,,"car_dealer, store, point_of_interest, establishment",True,South_Jakarta_Pondok_Indah,porsche,True,2025-08-05T10:08:24.002196
ChIJE29HWj73aS4RO0UI9YkZUJY,PORSHANGGAR Porsche Specialist,Affluence_Proxy,Luxury_Dealer,-6.2192757,106.7266374,"Jl. Joglo Raya No.25, Joglo, Kec. Kembangan, Kota Jakarta Barat, Daerah Khusus Ibukota Jakarta 11640, Indonesia","Jl. Joglo Raya No.25, Joglo, Kota Jakarta Barat",5,2,,,,"point_of_interest, establishment",True,South_Jakarta_Pondok_Indah,porsche,,2025-08-05T10:08:24.160533
ChIJL2MGkZf7aS4RwXk2ooHOQzc,88Coding Indonesia (HQ),Affluence_Proxy,Luxury_Dealer,-6.275342999999999,106.7448496,"Jl. Nusa Jaya No.37B, Pd. Ranji, Kec. Ciputat Tim., Kota Tangerang Selatan, Banten 15412, Indonesia","Jl. Nusa Jaya No.37B, Pd. Ranji, Kota Tangerang Selatan",5,392,,0859-7408-0324,,"store, car_repair, point_of_interest, establishment",True,South_Jakarta_Pondok_Indah,porsche,True,2025-08-05T10:08:24.323099
ChIJ7T20D2TvaS4RZxXc9XCQNtk,PORSCHE HOME SERVICE,Affluence_Proxy,Luxury_Dealer,-6.304932300000001,106.7369726,"Jl. Musyawarah Dalam III, Kedaung, Kec. Pamulang, Kota Tangerang Selatan, Banten 15413, Indonesia","Jl. Musyawarah Dalam III, Kedaung, Kota Tangerang Selatan",5,5,https://porschehomeservice.com/,0878-8213-0006,,"car_repair, point_of_interest, establishment",True,South_Jakarta_Pondok_Indah,porsche,False,2025-08-05T10:08:24.506223
ChIJ04hy_5IFai4RHWB5n_HLOVg,CNC GARAGE,Affluence_Proxy,Luxury_Dealer,-6.0534779,106.7005034,"WPW2+J62, Salembaran, Kosambi, Tangerang Regency, Banten, Indonesia","WPW2+J62, Salembaran, Tangerang Regency",5,23,,0877-7441-1146,,"point_of_interest, car_dealer, store, establishment",True,North_Jakarta_PIK,luxury car dealer,False,2025-08-05T10:17:45.073755
ChIJwXfWkikdai4RYEICXmiUsRQ,The Autohall,Affluence_Proxy,Luxury_Dealer,-6.0540354,106.6986159,"Distrik Otomotif, Jalan Jendral Sudirman Jalan Pantai Indah Kapuk No.2, Kosambi Bar., Kec. Kosambi, Kabupaten Tangerang, Banten 15213, Indonesia","Distrik Otomotif, Jalan Jendral Sudirman Jalan Pantai Indah Kapuk No.2, Kosambi Bar., Kabupaten Tangerang",5,9,http://www.the-autohall.com/,0813-1933-2339,,"car_dealer, point_of_interest, store, establishment",True,North_Jakarta_PIK,luxury car dealer,True,2025-08-05T10:17:45.249266
ChIJh1tIGwAFai4Rwbdj5_nFFhg,BMW & MINI Eurokars PIK 2,Affluence_Proxy,Luxury_Dealer,-6.057328900000001,106.6837287,"Jl. Fatmawati Kav KLB 25-26, PIK 2, Salembaran, Kosambi, Tangerang Regency, Banten, Indonesia","Jl. Fatmawati Kav KLB 25-26, PIK 2, Tangerang Regency",5,23,https://bmw-eurokars.co.id/,,,"car_dealer, store, point_of_interest, establishment",True,North_Jakarta_PIK,bmw dealer,True,2025-08-05T10:17:46.166804
ChIJKbvDwHD2aS4RVC8GnmIP0O8,Sidolin Motor,Affluence_Proxy,Luxury_Dealer,-6.165244400000001,106.8107952,"Jl. Cideng Timur No.17 1, RT.1/RW.4, Petojo Utara, Kecamatan Gambir, Kota Jakarta Pusat, Daerah Khusus Ibukota Jakarta 10130, Indonesia","Jl. Cideng Timur No.17 1, RT.1/RW.4, Petojo Utara, Kota Jakarta Pusat",5,5,,0851-0137-1099,,"car_dealer, store, point_of_interest, establishment",True,North_Jakarta_PIK,bmw dealer,True,2025-08-05T10:17:46.356132
ChIJG3nbUyD3aS4R9-HEf6ByGlw,SWAG PIK 2,Affluence_Proxy,Luxury_Dealer,-6.0529547,106.6988431,"DISTRIK OTOMOTIF PIK 2 : Blok B17 - B18, PIK2, Jl. Jendral Sudirman No.11A Blok DH, Salembaran, Kosambi, Tangerang Regency, Banten 15211, Indonesia","DISTRIK OTOMOTIF PIK 2 : Blok B17 - B18, PIK2, Jl. Jendral Sudirman No.11A Blok DH, Tangerang Regency",5,73,https://lynk.id/swag,0878-8000-2211,,"car_dealer, point_of_interest, store, establishment",True,North_Jakarta_PIK,porsche,False,2025-08-05T10:17:47.287305
ChIJ6wQXwpL1aS4R2qdFXjtPXZ4,BKB PAUD CERDAS,Affluence_Proxy,Luxury_Dealer,-6.141415299999999,106.8439679,"Gg. 10 No.11, RT.11/RW.4, Pademangan Tim., Kec. Pademangan, Jkt Utara, Daerah Khusus Ibukota Jakarta 14410, Indonesia","Gg. 10 No.11, RT.11/RW.4, Pademangan Tim., Jkt Utara",5,4,,,,"school, point_of_interest, establishment",True,North_Jakarta_Kelapa_Gading,porsche,,2025-08-05T10:18:46.512816
ChIJUYWxeGT1aS4RD2_ROiFmcxE,Lexus Menteng Gallery,Affluence_Proxy,Luxury_Dealer,-6.2016939,106.8460009,"Jl. Proklamasi No.35 Lantai 1, RT.11/RW.2, Pegangsaan, Kec. Menteng, Kota Jakarta Pusat, Daerah Khusus Ibukota Jakarta 10320, Indonesia","Jl. Proklamasi No.35 Lantai 1, RT.11/RW.2, Pegangsaan, Kota Jakarta Pusat",4.9,1429,https://www.lexus.co.id/,(021) 3901325,,"car_dealer, point_of_interest, store, establishment",True,Central_Jakarta_Core,luxury car dealer,True,2025-08-05T10:03:43.985161
ChIJ7WfTKWvxaS4R0hkakuxn8NU,MINI Cooper Jakarta Selatan,Affluence_Proxy,Luxury_Dealer,-6.249147300000001,106.7815781,"Jl sultan iskandar muda 8K, Jl. Sultan Iskandar Muda No.8K, Kby. Lama Sel., Kec. Kby. Lama, Kota Jakarta Selatan, Daerah Khusus Ibukota Jakarta 12110, Indonesia","Jl sultan iskandar muda 8K, Jl. Sultan Iskandar Muda No.8K, Kota Jakarta Selatan",4.9,118,https://www.instagram.com/mini.indonesia?igsh=YmxzNTJwenVoemEy,0822-9889-9498,,"car_dealer, store, car_repair, point_of_interest, establishment",True,Central_Jakarta_South,luxury car dealer,True,2025-08-05T10:05:30.019124
ChIJnTbl2jjzaS4Rc8TVmlefSno,Martak Auto Boutique (MAB) - JUAL BELI MOBIL BEKAS BERKUALITAS,Affluence_Proxy,Luxury_Dealer,-6.2433675,106.9021881,"Jl. Pahlawan Revolusi No.40, Pd. Bambu, Kec. Duren Sawit, Kota Jakarta Timur, Daerah Khusus Ibukota Jakarta 13430, Indonesia","Jl. Pahlawan Revolusi No.40, Pd. Bambu, Kota Jakarta Timur",4.9,323,http://instagram.com/martakautoboutique,0812-8652-7768,,"car_dealer, store, point_of_interest, establishment",True,Central_Jakarta_South,luxury car dealer,True,2025-08-05T10:05:30.344175
ChIJSa7F4xnxaS4R9d7A0eFc7Js,Rolls-Royce Motor Cars Jakarta,Affluence_Proxy,Luxury_Dealer,-6.2413943,106.7823853,"Eurokars Group Indonesia, Jl. Sultan Iskandar Muda Arteri No.51, Pondok Indah, Kec. Kby. Lama, Kota Jakarta Selatan, Daerah Khusus Ibukota Jakarta 12240, Indonesia","Eurokars Group Indonesia, Jl. Sultan Iskandar Muda Arteri No.51, Pondok Indah, Kota Jakarta Selatan",4.9,31,https://www.rolls-roycemotorcars-jakarta.co.id/,0813-1078-5522,,"car_dealer, store, point_of_interest, establishment",True,Central_Jakarta_South,luxury car dealer,True,2025-08-05T10:05:30.508382
ChIJF_zY8qjxaS4RbiwTNaLKrYI,Rocket Motor Company,Affluence_Proxy,Luxury_Dealer,-6.2904046,106.7949636,"Jalan RS Fatmawati. 1, Jl. Banjarsari IV No.1, RT.5/RW.8, Cilandak Bar., Kec. Cilandak, Kota Jakarta Selatan, Daerah Khusus Ibukota Jakarta 12430, Indonesia","Jalan RS Fatmawati. 1, Jl. Banjarsari IV No.1, RT.5/RW.8, Cilandak Bar., Kota Jakarta Selatan",4.9,28,,0857-3300-0561,,"car_dealer, store, point_of_interest, establishment",True,South_Jakarta_Kemang,luxury car dealer,False,2025-08-05T10:06:54.528439
ChIJGxhRkwHvaS4RcU-WxF9Ip00,Daihatsu Prima Parama Mobilindo Ciputat,Affluence_Proxy,Luxury_Dealer,-6.3346192,106.7488272,"Jl. RE Martadinata No.3, Cipayung, Kec. Ciputat, Kota Tangerang Selatan, Banten 15411, Indonesia","Jl. RE Martadinata No.3, Cipayung, Kota Tangerang Selatan",4.9,552,,(021) 7444032,,"car_dealer, store, point_of_interest, establishment",True,South_Jakarta_Pondok_Indah,luxury car dealer,True,2025-08-05T10:08:21.053040
ChIJV7nSRY7xaS4Rn67icjpOvbc,"MITSUBISHI DIPO Golf Island, PIK ( Official Account)",Affluence_Proxy,Luxury_Dealer,-6.0921449,106.7454791,"Jl. Pulau Maju Bersama, Jakarta, Daerah Khusus Ibukota Jakarta 14470, Indonesia","Jl. Pulau Maju Bersama, Jakarta",4.9,167,http://www.dipo.co.id/,0821-1566-0808,,"car_dealer, store, point_of_interest, establishment",True,West_Jakarta_Grogol,luxury car dealer,True,2025-08-05T10:15:37.532836
ChIJQ-eOkKMdai4Ro6blH2knPxw,Toyota - GR Garage by Auto2000 - PIK,Affluence_Proxy,Luxury_Dealer,-6.087350199999999,106.7325043,"Ebony 2 (Riverwalk - Pantai Kita Ruko Soho Ebony Paradise Blok B No 10-11, Jkt Utara, Daerah Khusus Ibukota Jakarta 14460, Indonesia","Ebony 2 (Riverwalk - Pantai Kita Ruko Soho Ebony Paradise Blok B No 10-11, Jkt Utara",4.9,222,https://toyotapik.com/,0852-1659-8673,,"point_of_interest, car_dealer, store, establishment",True,North_Jakarta_PIK,luxury car dealer,True,2025-08-05T10:17:44.904547
ChIJfRnf5Fkhai4ROgU-pdYErnA,HURRICANE XCS,Affluence_Proxy,Luxury_Dealer,-6.1264435,106.7494136,"Jl. Elang Laut, RT.4/RW.3, Kamal Muara, Kecamatan Penjaringan, Jkt Utara, Daerah Khusus Ibukota Jakarta 14470, Indonesia","Jl. Elang Laut, RT.4/RW.3, Kamal Muara, Jkt Utara",4.9,34,http://www.hurricane.co.id/,0878-7773-7700,,"point_of_interest, store, establishment",True,North_Jakarta_PIK,porsche,True,2025-08-05T10:17:47.450273
ChIJV86fI9H1aS4R4-7u94ZabPY,Auto Luxury,Affluence_Proxy,Luxury_Dealer,-6.1742462,106.8944534,"Bella Terra Lifestyle Center Kelapa Gading, Klp. Gading Tim., Kec. Klp. Gading, Jkt Utara, Daerah Khusus Ibukota Jakarta 14240, Indonesia","Bella Terra Lifestyle Center Kelapa Gading, East Kelapa Gading, North Jakarta City",4.8,4,,0812-9015-8892,,"car_dealer, point_of_interest, store, establishment",True,Central_Jakarta_Core,luxury car dealer,True,2025-08-05T10:03:43.487565
ChIJYe0cJtb1aS4RG3FosbyyY00,The Djakarta Auto,Affluence_Proxy,Luxury_Dealer,-6.1695796,106.8181311,"Jl. Suryopranoto No.B/9 10, RT.1/RW.8, Petojo Sel., Kecamatan Gambir, Kota Jakarta Pusat, Daerah Khusus Ibukota Jakarta 10160, Indonesia","Jl. Suryopranoto No.B/9 10, RT.1/RW.8, South Petojo, Central Jakarta City",4.8,4,http://www.tda.co.id/,(021) 3811149,,"car_dealer, point_of_interest, store, establishment",True,Central_Jakarta_Core,luxury car dealer,True,2025-08-05T10:03:43.805772
ChIJMe-pDIr2aS4RbkpUK8rKgTE,BMW Tunas Tomang,Affluence_Proxy,Luxury_Dealer,-6.177598,106.7987653,"Jl. Tomang Raya No.19, RT.1/RW.1, Tomang, Kec. Grogol petamburan, Kota Jakarta Barat, Daerah Khusus Ibukota Jakarta 11440, Indonesia","Jl. Tomang Raya No.19, RT.1/RW.1, Tomang, Kota Jakarta Barat",4.8,482,https://www.bmw-tunas.co.id/,(021) 5633152,,"car_dealer, car_repair, point_of_interest, store, establishment",True,Central_Jakarta_Core,luxury car dealer,True,2025-08-05T10:03:44.981539
ChIJkUbSl5Qfai4RtUF2bvo58-w,Glory Perkasa Mobil,Affluence_Proxy,Luxury_Dealer,-6.1490459,106.8880463,"Bursa Otomotif Sunter (BOS) Blok B2 No. 23-25, Jalan Yos Sudarso Kav. 87-8, 8RT.1/RW.2, Koja, RT.10/RW.11, Sunter Jaya, Kec. Tj. Priok, Jkt Utara, Daerah Khusus Ibukota Jakarta 11520, Indonesia","Bursa Otomotif Sunter (BOS) Blok B2 No. 23-25, Jalan Yos Sudarso Kav. 87-8, 8RT.1/RW.2, Koja, RT.10/RW.11, Sunter Jaya, Jkt Utara",4.8,37,,(021) 29450704,,"car_dealer, point_of_interest, store, establishment",True,Central_Jakarta_Core,luxury car dealer,False,2025-08-05T10:03:45.488584
ChIJ7aVZB231aS4R6VSyvVTKAb4,BMW Jakarta Pusat,Affluence_Proxy,Luxury_Dealer,-6.1984574,106.8228774,"Jl. M.H. Thamrin No.Kav.8, RT.5/RW.1, Kb. Melati, Kecamatan Tanah Abang, Kota Jakarta Pusat, Daerah Khusus Ibukota Jakarta 10230, Indonesia","Jl. M.H. Thamrin No.Kav.8, RT.5/RW.1, Kb. Melati, Kota Jakarta Pusat",4.8,9,http://www.showroombmw.com/,0811-9151-800,,"point_of_interest, car_dealer, store, establishment",True,Central_Jakarta_Core,bmw dealer,True,2025-08-05T10:03:47.031797
ChIJbxewgSzzaS4Rhyqa5pJAMGQ,BMW Official Store,Affluence_Proxy,Luxury_Dealer,-6.2303314,106.8463702,"Jl. Prof. DR. Soepomo No.174, Menteng Dalam, Kec. Tebet, Kota Jakarta Selatan, Daerah Khusus Ibukota Jakarta 12810, Indonesia","Jl. Prof. DR. Soepomo No.174, Menteng Dalam, Kota Jakarta Selatan",4.8,25,http://www.bmwstore.id/,0822-4459-6129,,"point_of_interest, car_dealer, store, establishment",True,Central_Jakarta_Core,bmw dealer,True,2025-08-05T10:03:47.188984
ChIJtX3MMMX3aS4Rd7Sh_yCrHYc,AUTOFRESH Indonesia,Affluence_Proxy,Luxury_Dealer,-6.1730605,106.7597576,"Jl. Kedoya Pesing No.1, RT.9/RW.7, Kedoya Utara, Kec. Kb. Jeruk, Kota Jakarta Barat, Daerah Khusus Ibukota Jakarta 11520, Indonesia","Jl. Kedoya Pesing No.1, RT.9/RW.7, Kedoya Utara, Kota Jakarta Barat",4.8,5,https://autofreshid.com/,0819-3209-2426,,"store, point_of_interest, establishment",True,Central_Jakarta_Core,porsche,True,2025-08-05T10:03:51.198149
ChIJpZ3FhAXxaS4RAT09uv-378I,Glamor Auto Boutique,Affluence_Proxy,Luxury_Dealer,-6.253704,106.7818264,"3, Jl. Sultan Iskandar Muda No.9, RT.3/RW.5, Kby. Lama Sel., Kec. Kby. Lama, Kota Jakarta Selatan, Daerah Khusus Ibukota Jakarta 12241, Indonesia","3, Jl. Sultan Iskandar Muda No.9, RT.3/RW.5, Kby. Lama Sel., Kota Jakarta Selatan",4.8,99,http://glamourautoboutique.com/,0812-9090-9445,,"car_dealer, store, point_of_interest, establishment",True,Central_Jakarta_South,luxury car dealer,True,2025-08-05T10:05:29.372777
ChIJixryjhzxaS4R3vOHe9PN4Sw,Gorgeous Auto Cars,Affluence_Proxy,Luxury_Dealer,-6.2552971,106.7820051,"No.79 E, Jl. Sultan Iskandar Muda, Kby. Lama Sel., Kec. Kby. Lama, Kota Jakarta Selatan, Daerah Khusus Ibukota Jakarta 12240, Indonesia","No.79 E, Jl. Sultan Iskandar Muda, Kby. Lama Sel., Kota Jakarta Selatan",4.8,19,,(021) 27092321,,"car_dealer, store, point_of_interest, establishment",True,Central_Jakarta_South,luxury car dealer,True,2025-08-05T10:05:29.696665
ChIJxWaymuDxaS4RyBsGYJ_WIyA,Baruna Motor,Affluence_Proxy,Luxury_Dealer,-6.2842479,106.7956935,"Jl. RS. Fatmawati Raya No.79, RT.4/RW.4, Cilandak Bar., Jakarta, Kota Jakarta Selatan, Daerah Khusus Ibukota Jakarta 12430, Indonesia","Jl. RS. Fatmawati Raya No.79, RT.4/RW.4, Cilandak Bar., Kota Jakarta Selatan",4.8,65,http://idlandingpage.com/barunamotor,(021) 7504217,,"car_dealer, store, point_of_interest, establishment",True,South_Jakarta_Kemang,luxury car dealer,True,2025-08-05T10:06:54.364985
ChIJAQCQCQ3xaS4RNcYGE2KZ0sc,Djakarta Motor,Affluence_Proxy,Luxury_Dealer,-6.262334999999999,106.7887569,"Depan Showroom Suzuki, Jl. Radio Dalam Raya No.8, RT.7/RW.10, Gandaria Utara, Kec. Kby. Baru, Kota Jakarta Selatan, Daerah Khusus Ibukota Jakarta 12140, Indonesia","Depan Showroom Suzuki, Jl. Radio Dalam Raya No.8, RT.7/RW.10, North Gandaria, South Jakarta City",4.8,17,http://djakarta-motor.com/,0815-1900-2800,,"car_dealer, store, point_of_interest, establishment",True,South_Jakarta_Kemang,bmw dealer,True,2025-08-05T10:06:59.516515
ChIJ2SOQ_bDtaS4RAWPQLrJa3is,Hanggar 17 - Jaguar and Land Rover Workshops,Affluence_Proxy,Luxury_Dealer,-6.300705,106.8207516,"Jl. Harsono RM No.17, RT.7/RW.4, Ragunan, Ps. Minggu, Kota Jakarta Selatan, Daerah Khusus Ibukota Jakarta 12550, Indonesia","Jl. Harsono RM No.17, RT.7/RW.4, Ragunan, Kota Jakarta Selatan",4.8,84,https://www.instagram.com/hanggar17/,0822-6073-1717,,"car_repair, point_of_interest, establishment",True,South_Jakarta_Kemang,porsche,True,2025-08-05T10:07:01.155301
ChIJsXcZoHH5aS4RLKaKcJxBnEc,GARASI CIPONDOH (Showroom Mobil Second),Affluence_Proxy,Luxury_Dealer,-6.1818691,106.6898414,"RM9Q+6WX, Cipondoh Indah, Cipondoh, Tangerang City, Banten 15148, Indonesia","RM9Q+6WX, Cipondoh Indah, Tangerang City",4.8,10,https://www.instagram.com/mj_garage2?igsh=MWp3b2V2b2o1cm1pdQ==,0857-1936-7169,,"point_of_interest, car_dealer, store, establishment",True,North_Jakarta_PIK,luxury car dealer,False,2025-08-05T10:17:45.417620
ChIJf5WxdJIdai4R-vT3xcRiiG8,Auto Plus Indonesia - Pirelli Indonesia,Affluence_Proxy,Luxury_Dealer,-6.1155019,106.7924933,"Jl. Pluit Permai No.33, RT.1/RW.5, Pluit, Kecamatan Penjaringan, Jkt Utara, Daerah Khusus Ibukota Jakarta 14450, Indonesia","Jl. Pluit Permai No.33, RT.1/RW.5, Pluit, Jkt Utara",4.8,413,http://www.autoplusindonesia.com/,0855-7866-123,,"car_wash, car_repair, point_of_interest, store, establishment",True,North_Jakarta_PIK,porsche,True,2025-08-05T10:17:47.120299
ChIJH_JjqLaKaS4RU-2BqkNseXg,Otospector,Affluence_Proxy,Luxury_Dealer,-6.1489473,106.9202404,"Rukan Grand Orchard, Jl. Terusan Klp. Hybrida Unit F-01, RT.9/RW.1, Sukapura, Kec. Cilincing, Jkt Utara, Daerah Khusus Ibukota Jakarta 14140, Indonesia","Rukan Grand Orchard, Jl. Terusan Klp. Hybrida Unit F-01, RT.9/RW.1, Sukapura, Jkt Utara",4.8,1006,https://otospector.co.id/,(021) 38865218,,"car_repair, point_of_interest, establishment",True,North_Jakarta_Kelapa_Gading,porsche,True,2025-08-05T10:18:46.345799
ChIJsSeQY0fxaS4RpM6TFXSBl4Y,P.A.D (Prestige Auto Detailer),Affluence_Proxy,Luxury_Dealer,-6.231890099999999,106.7945655,"Jl. Hang Lekir No.25 9, RT.9/RW.6, Gunung, Kec. Kby. Baru, Kota Jakarta Selatan, Daerah Khusus Ibukota Jakarta 12120, Indonesia","Jl. Hang Lekir No.25 9, RT.9/RW.6, Gunung, Kota Jakarta Selatan",4.7,105,http://www.prestigeautodetailer.com/,(021) 7243944,,"car_repair, point_of_interest, establishment",True,Central_Jakarta_Core,luxury car dealer,True,2025-08-05T10:03:44.318666
ChIJf0N_dd_1aS4Rr-p3GxeFtbo,BMW Tunas Hayam Wuruk,Affluence_Proxy,Luxury_Dealer,-6.1587022,106.8191852,"Jl. Hayam Wuruk No.51, RT.7/RW.7, Maphar, Kec. Taman Sari, Kota Jakarta Barat, Daerah Khusus Ibukota Jakarta 11160, Indonesia","Hayam Wuruk St No.51, RT.7/RW.7, Maphar, West Jakarta City",4.7,117,https://www.bmw-tunas.co.id/,(021) 6495550,,"car_dealer, point_of_interest, store, establishment",True,Central_Jakarta_Core,luxury car dealer,True,2025-08-05T10:03:45.142479
ChIJqbLL-g31aS4RDiQxCWl1_xE,BMW Performance Motors Retail.Next,Affluence_Proxy,Luxury_Dealer,-6.198462900000001,106.8228206,"Jl. M.H. Thamrin No.Kav. 8, RT.5/RW.1, Kb. Melati, Kecamatan Tanah Abang, Kota Jakarta Pusat, Daerah Khusus Ibukota Jakarta 10230, Indonesia","Jl. M.H. Thamrin No.Kav. 8, RT.5/RW.1, Kb. Melati, Kota Jakarta Pusat",4.7,84,https://bmw-performancemotors.co.id/,(021) 30121201,,"point_of_interest, car_dealer, store, establishment",True,Central_Jakarta_Core,bmw dealer,True,2025-08-05T10:03:46.865816
ChIJSa7F4xnxaS4RjDoGNv2j7XA,Porsche Centre Jakarta,Affluence_Proxy,Luxury_Dealer,-6.241446100000001,106.7820627,"Jl. Sultan Iskandar Muda No.51, Kby. Lama Utara, Kec. Kby. Lama, Kota Jakarta Selatan, Daerah Khusus Ibukota Jakarta 12240, Indonesia","Jl. Sultan Iskandar Muda No.51, Kby. Lama Utara, Kota Jakarta Selatan",4.7,525,https://dealer.porsche.com/id/jakarta,(021) 7258000,$$$$,"car_dealer, store, point_of_interest, establishment",True,Central_Jakarta_Core,porsche,True,2025-08-05T10:03:49.385954
ChIJExMAlZEdai4RoGfuJI8Ck1I,"Premiere autowerkz , pp performance",Affluence_Proxy,Luxury_Dealer,-6.1251627,106.787046,"Premiere Autowerkz, Pp Performance, Jl. Pluit Barat IIIA No.1 3, RT.16/RW.7, Pluit, Kecamatan Penjaringan, Jkt Utara, Daerah Khusus Ibukota Jakarta 14450, Indonesia","Premiere Autowerkz, Pp Performance, Jl. Pluit Barat IIIA No.1 3, RT.16/RW.7, Pluit, Jkt Utara",4.7,43,,0817-0008-072,,"point_of_interest, establishment",True,Central_Jakarta_Core,porsche,,2025-08-05T10:03:51.048092
ChIJp1mZQQXxaS4R_aFgqgaUSyQ,Ivan's Motor,Affluence_Proxy,Luxury_Dealer,-6.2503353,106.7811546,"Jl. Sultan Iskandar Muda No.27, RT.6/RW.1, Kby. Lama Sel., Kec. Kby. Lama, Kota Jakarta Selatan, Daerah Khusus Ibukota Jakarta 12240, Indonesia","Jl. Sultan Iskandar Muda No.27, RT.6/RW.1, Kby. Lama Sel., Kota Jakarta Selatan",4.7,154,http://www.ivansmotor.com/,(021) 7296888,,"car_dealer, store, point_of_interest, establishment",True,Central_Jakarta_South,luxury car dealer,True,2025-08-05T10:05:29.858135
ChIJC3rFobKMaS4RobpOfyuqeNg,JH AUTO,Affluence_Proxy,Luxury_Dealer,-6.2246698,106.9136187,"Jl. Komp. Perumahan Kav Ptb Duren Sawit Jl. Lkr. Timur Duren Sawit No.1 2, RT.2/RW.4, Duren Sawit, Kec. Duren Sawit, Kota Jakarta Timur, Daerah Khusus Ibukota Jakarta 13440, Indonesia","Jl. Komp. Perumahan Kav Ptb Duren Sawit Jl. Lkr. Timur Duren Sawit No.1 2, RT.2/RW.4, Duren Sawit, Kota Jakarta Timur",4.7,59,,0811-9946-276,,"car_dealer, store, point_of_interest, establishment",True,Central_Jakarta_South,luxury car dealer,True,2025-08-05T10:05:31.144864
ChIJ0fpOpg6YMYUR0wkxqQZdeLU,BMW Tanjung Barat,Affluence_Proxy,Luxury_Dealer,-6.306890099999999,106.8399613,"AEON MALL, Jl. Raya Tj. Barat No.163, RT.12/RW.4, West Tanjung, Jagakarsa, South Jakarta City, Jakarta 12530, Indonesia","AEON MALL, Jl. Raya Tj. Barat No.163, RT.12/RW.4, West Tanjung",4.7,12,https://bmwjakarta.co.id/,0811-9151-800,,"car_dealer, point_of_interest, store, establishment",True,South_Jakarta_Kemang,bmw dealer,False,2025-08-05T10:06:58.862847
ChIJJW7tIMvxaS4RGuQhsOpd7EY,BAS Auto Gallery,Affluence_Proxy,Luxury_Dealer,-6.2828398,106.7720237,"Jl. Ciputat Raya No.14 3, RT.3/RW.7, Pd. Pinang, Kec. Kby. Lama, Kota Jakarta Selatan, Daerah Khusus Ibukota Jakarta 12310, Indonesia","Jl. Ciputat Raya No.14 3, RT.3/RW.7, Pd. Pinang, Kota Jakarta Selatan",4.7,29,,0817-177-699,,"car_dealer, point_of_interest, store, establishment",True,South_Jakarta_Kemang,bmw dealer,True,2025-08-05T10:06:59.188503
ChIJc7dyD_zxaS4RzhSKRTY1XBs,BMW Bintaro,Affluence_Proxy,Luxury_Dealer,-6.2817148,106.7276964,"Bintaro, Pondok Aren, South Tangerang City, Banten 15220, Indonesia","Bintaro, South Tangerang City",4.7,161,https://www.youtube.com/channel/UCN72uU42xm4jnE5PO-D4rrQ,0818-166-732,,"car_dealer, store, point_of_interest, establishment",True,South_Jakarta_Pondok_Indah,bmw dealer,True,2025-08-05T10:08:22.122532
ChIJzf1BIAf1aS4Rm7Llk1OxyHs,Auto Service,Affluence_Proxy,Luxury_Dealer,-6.1687281,106.8679357,"Kav. 17, Sumur Batu I, RT.11/RW.5 Cempaka Baru Kemayoran, Jl. Letjen Suprapto No.28, RT.9/RW.7, Cemp. Putih Tim., Kec. Cemp. Putih, Kota Jakarta Pusat, Daerah Khusus Ibukota Jakarta 10640, Indonesia","Kav. 17, Sumur Batu I, RT.11/RW.5 Cempaka Baru Kemayoran, Jl. Letjen Suprapto No.28, RT.9/RW.7, Cemp. Putih Tim., Kota Jakarta Pusat",4.7,201,http://autoservice.co.id/,(021) 4213335,,"car_repair, point_of_interest, establishment",True,North_Jakarta_Kelapa_Gading,porsche,True,2025-08-05T10:18:46.676480
ChIJuWI7zF31aS4RzdPuagXTGKM,Astra Peugeot Sunter,Affluence_Proxy,Luxury_Dealer,-6.1408223,106.8908795,"Jl. Yos Sudarso No.Kav 24, Sungai Bambu, Kec. Tj. Priok, Jkt Utara, Daerah Khusus Ibukota Jakarta 14330, Indonesia","Jl. Yos Sudarso No.Kav 24, Sungai Bambu, Jkt Utara",4.6,86,http://www.peugeot.co.id/,(021) 6512325,,"car_dealer, point_of_interest, store, establishment",True,Central_Jakarta_Core,luxury car dealer,True,2025-08-05T10:03:44.479415
ChIJX-WHuR33aS4Rq67bBc2EuBI,PT Trans Eurokars Indonesia,Affluence_Proxy,Luxury_Dealer,-6.191953199999999,106.7685029,"Jl. Panjang No.6, RT.11/RW.11, Kb. Jeruk, Kec. Kb. Jeruk, Kota Jakarta Barat, Daerah Khusus Ibukota Jakarta 11530, Indonesia","Jl. Panjang No.6, RT.11/RW.11, Kb. Jeruk, Kota Jakarta Barat",4.6,413,https://service.bmw.co.id/?dealer=BMWIERLTEB,(021) 5358000,,"point_of_interest, car_dealer, store, establishment",True,Central_Jakarta_Core,bmw dealer,True,2025-08-05T10:03:46.177026
ChIJN00w5mb1aS4Rwe7L8DSpmLM,BMW Astra Sunter,Affluence_Proxy,Luxury_Dealer,-6.140251399999999,106.8848365,"Jl. Gaya Motor Raya Sunter II No.1, Sungai Bambu, Kec. Tj. Priok, Jkt Utara, Daerah Khusus Ibukota Jakarta 14330, Indonesia","Jl. Gaya Motor Raya Sunter II No.1, Sungai Bambu, Jkt Utara",4.6,892,https://bmw.astra.co.id/,(021) 6505959,,"point_of_interest, car_dealer, store, establishment",True,Central_Jakarta_Core,bmw dealer,True,2025-08-05T10:03:46.342057
ChIJRaVgKpLzaS4RFKyBdLWg9kc,BMW Tunas Tebet,Affluence_Proxy,Luxury_Dealer,-6.230399999999999,106.846733,"Jl. Prof. DR. Soepomo No.174, Menteng Dalam, Kec. Tebet, Kota Jakarta Selatan, Daerah Khusus Ibukota Jakarta 12870, Indonesia","Jl. Prof. DR. Soepomo No.174, Menteng Dalam, Kota Jakarta Selatan",4.6,500,https://www.bmw-tunas.co.id/,(021) 8301805,,"car_repair, point_of_interest, car_dealer, store, establishment",True,Central_Jakarta_Core,bmw dealer,True,2025-08-05T10:03:46.499902
ChIJhZuDKELzaS4R3YPSVcPfDUw,AFJ Motorsport,Affluence_Proxy,Luxury_Dealer,-6.2135965,106.8949626,"Pondok Kopi, Jl. I Gusti Ngurah Rai Gg. Ciparai 3 No.4, RT.4/RW.5, Cipinang Muara, Kecamatan Jatinegara, Kota Jakarta Timur, Daerah Khusus Ibukota Jakarta 13420, Indonesia","Pondok Kopi, Jl. I Gusti Ngurah Rai Gg. Ciparai 3 No.4, RT.4/RW.5, Cipinang Muara, Kota Jakarta Timur",4.6,152,,0815-9400-072,,"car_repair, point_of_interest, establishment",True,Central_Jakarta_Core,porsche,True,2025-08-05T10:03:50.554403
ChIJoUY6sefxaS4RvwT3xBCguVE,Ferrari Showroom & Service (PT Eurokars Prima Utama),Affluence_Proxy,Luxury_Dealer,-6.201181699999999,106.8440848,"Jl. Proklamasi No.36A, Pegangsaan, Kec. Menteng, Kota Jakarta Pusat, Daerah Khusus Ibukota Jakarta 10320, Indonesia","Jl. Proklamasi No.36A, Pegangsaan, Kota Jakarta Pusat",4.6,183,http://www.jakarta.ferraridealers.com/,(021) 21243888,,"car_dealer, store, point_of_interest, establishment",True,Central_Jakarta_Core,porsche,True,2025-08-05T10:03:50.713768
ChIJ1W9y_zHxaS4RKnl_eWEh2wY,Maserati Indonesia,Affluence_Proxy,Luxury_Dealer,-6.241205099999999,106.7826188,"Jl. Sultan Iskandar Muda Arteri No.51 Level 4, Pondok Indah, Kec. Kby. Lama, Kota Jakarta Selatan, Daerah Khusus Ibukota Jakarta 12240, Indonesia","Jl. Sultan Iskandar Muda Arteri No.51 Level 4, Pondok Indah, Kota Jakarta Selatan",4.6,31,https://www.maserati.com/id/en/shopping-tools/dealer-locator,0812-2225-0920,,"car_dealer, store, point_of_interest, establishment",True,Central_Jakarta_Core,porsche,True,2025-08-05T10:03:50.886364
ChIJC294St7xaS4Rm9JKn6QpoZI,TDA Luxury Toys,Affluence_Proxy,Luxury_Dealer,-6.2494263,106.7926285,"Jl. Kramat Pela Raya No.31, Kramat Pela, Kec. Kby. Baru, Kota Jakarta Selatan, Daerah Khusus Ibukota Jakarta 12130, Indonesia","Jl. Kramat Pela Raya No.31, Kramat Pela, Kota Jakarta Selatan",4.6,151,http://www.tda.co.id/,0813-8659-5922,,"car_dealer, store, point_of_interest, establishment",True,Central_Jakarta_South,luxury car dealer,True,2025-08-05T10:05:29.203492
ChIJt3i6ElHxaS4RkupqtZ9Hgls,McLaren Jakarta,Affluence_Proxy,Luxury_Dealer,-6.241347699999999,106.7823158,"Jl. Sultan Iskandar Muda No.51, RT.6/RW.1, Kby. Lama Utara, Kec. Kby. Lama, Kota Jakarta Selatan, Daerah Khusus Ibukota Jakarta 12240, Indonesia","Jl. Sultan Iskandar Muda No.51, RT.6/RW.1, Kby. Lama Utara, Kota Jakarta Selatan",4.6,43,http://www.jakarta.mclaren.com/,(021) 27099999,,"car_dealer, store, point_of_interest, establishment",True,Central_Jakarta_South,luxury car dealer,True,2025-08-05T10:05:30.982575
ChIJ6Ytv9knxaS4R6cgRT_knnfE,BMW Astra Cilandak,Affluence_Proxy,Luxury_Dealer,-6.292561099999999,106.7896399,"Jl. R.A. Kartini No.Kav. 203, RT.11/RW.4, Cilandak Bar., Kec. Cilandak, Kota Jakarta Selatan, Daerah Khusus Ibukota Jakarta 12430, Indonesia","Jl. R.A. Kartini No.Kav. 203, RT.11/RW.4, Cilandak Bar., Kota Jakarta Selatan",4.6,452,http://bmw.astra.co.id/,(021) 7500335,,"car_dealer, car_repair, point_of_interest, store, establishment",True,South_Jakarta_Kemang,bmw dealer,True,2025-08-05T10:06:57.921328
ChIJ4XXWkebxaS4R5tM605trAv8,BMW Motorrad Indonesia Flagship Store,Affluence_Proxy,Luxury_Dealer,-6.2928102,106.7991485,"Jl. TB Simatupang No.100, RT.10/RW.2, Cilandak Bar., Kec. Cilandak, Kota Jakarta Selatan, Daerah Khusus Ibukota Jakarta 12430, Indonesia","Jl. Tahi Bonar Simatupang No.100, RT.10/RW.2, Cilandak Bar., Kota Jakarta Selatan",4.6,337,http://www.bmw-motorrad.co.id/,(021) 27654600,,"point_of_interest, store, establishment",True,South_Jakarta_Kemang,bmw dealer,True,2025-08-05T10:06:58.081870
ChIJXwE-DnXwaS4R9YfHIffXTB4,Garnet Auto,Affluence_Proxy,Luxury_Dealer,-6.276703899999999,106.8233148,"Jalan Pejaten Barat No. 11C 3 7, Jl. Pejaten Barat Raya No.11C, RT.1/RW.10, Ragunan, Ps. Minggu, Kota Jakarta Selatan, Daerah Khusus Ibukota Jakarta 12540, Indonesia","Jalan Pejaten Barat No. 11C 3 7, Jl. Pejaten Barat Raya No.11C, RT.1/RW.10, Ragunan, Kota Jakarta Selatan",4.6,28,,0818-3870-22275,,"car_dealer, point_of_interest, store, establishment",True,South_Jakarta_Kemang,bmw dealer,True,2025-08-05T10:06:58.563853
ChIJE8k8iqQdai4RrQ9u8qSgnCg,Prestige Image Motorcars,Affluence_Proxy,Luxury_Dealer,-6.054797199999999,106.6990421,"Distrik Otomotif PIK 2, Blok DH11, Showroom Prestige Motorcars A5, Salembaran, Kec. Kosambi, Kabupaten Tangerang, Banten 15214, Indonesia","Distrik Otomotif PIK 2, Blok DH11, Showroom Prestige Motorcars A5, Kabupaten Tangerang",4.6,245,https://prestigecars.co.id/,(021) 6690444,,"car_dealer, point_of_interest, store, establishment",True,North_Jakarta_PIK,luxury car dealer,False,2025-08-05T10:17:44.733662
ChIJ_XnE0131aS4RfYR46EKzaV8,Bursa Otomotif Sunter,Affluence_Proxy,Luxury_Dealer,-6.1486,106.88833,"Bursa Otomotif Sunter Blok B2 No:20 Jakarta, Sunter Jaya, Kec. Tj. Priok, Jkt Utara, Daerah Khusus Ibukota Jakarta 14230, Indonesia",Bursa Otomotif Sunter Blok B2 No:20 Jakarta,4.5,1159,,(021) 65836258,,"car_dealer, point_of_interest, store, establishment",True,Central_Jakarta_Core,luxury car dealer,True,2025-08-05T10:03:44.645949
ChIJyfU15xbxaS4RaGpPjWCnrOA,Mazda Simprug,Affluence_Proxy,Luxury_Dealer,-6.2335566,106.7863313,"Jl. Teuku Nyak Arief No.9D, Grogol Sel., Kec. Kby. Lama, Kota Jakarta Selatan, Daerah Khusus Ibukota Jakarta 12220, Indonesia","Mazda Promo Jkt, Jl. Teuku Nyak Arief No.9D, Grogol Sel., Kota Jakarta Selatan",4.5,221,http://www.mazda.co.id/,(021) 7269000,,"car_dealer, point_of_interest, store, establishment",True,Central_Jakarta_Core,luxury car dealer,True,2025-08-05T10:03:45.317109
ChIJkZwbB5Udai4RwwzZtyDWH-Y,BMW Astra Pluit,Affluence_Proxy,Luxury_Dealer,-6.125401999999999,106.798087,"Jl. Pluit Selatan Raya No.8A, RT.3/RW.8, Pluit, Kecamatan Penjaringan, Jkt Utara, Daerah Khusus Ibukota Jakarta 14450, Indonesia","Jl. Pluit Selatan Raya No.8A, RT.3/RW.8, Pluit, Jkt Utara",4.5,226,,(021) 66605599,,"point_of_interest, car_dealer, store, establishment",True,Central_Jakarta_Core,bmw dealer,True,2025-08-05T10:03:46.667184
ChIJHcO5qIz7aS4RR8xVp4wWOlg,BMW Experience,Affluence_Proxy,Luxury_Dealer,-6.1586836,106.8193587,"Jl. Hayam Wuruk No.51, Maphar, Kec. Taman Sari, Kota Jakarta Barat, Daerah Khusus Ibukota Jakarta 11160, Indonesia","Hayam Wuruk St No.51, Maphar, West Jakarta City",4.5,230,,0821-2526-2792,$$,"point_of_interest, car_dealer, store, establishment",True,Central_Jakarta_Core,bmw dealer,True,2025-08-05T10:03:48.279954
ChIJxxF2gBfxaS4RCyg0Tkjk3g8,Eurokars Group Indonesia,Affluence_Proxy,Luxury_Dealer,-6.241259899999999,106.782617,"Jl. Sultan Iskandar Muda No.51, Kby. Lama Utara, Kec. Kby. Lama, Kota Jakarta Selatan, Daerah Khusus Ibukota Jakarta 12240, Indonesia","Jl. Sultan Iskandar Muda No.51, Kby. Lama Utara, Kota Jakarta Selatan",4.5,85,https://www.eurokarsgroup.com/home-id/,(021) 7239333,,"point_of_interest, establishment",True,Central_Jakarta_Core,porsche,True,2025-08-05T10:03:50.384683
ChIJwT50SzjzaS4R9p7LFF7sfDg,DEKAN MOTORS,Affluence_Proxy,Luxury_Dealer,-6.237659799999999,106.8989571,"Jl. Pahlawan Revolusi No.2a, RT.2/RW.4, Pd. Bambu, Kec. Duren Sawit, Kota Jakarta Timur, Daerah Khusus Ibukota Jakarta 13430, Indonesia","Jl. Pahlawan Revolusi No.2a, RT.2/RW.4, Pd. Bambu, Kota Jakarta Timur",4.5,24,,0813-8206-2586,,"car_dealer, store, point_of_interest, establishment",True,Central_Jakarta_South,luxury car dealer,True,2025-08-05T10:05:30.182126
ChIJL_5qG2r1aS4R1mw9DpGHjCI,Matrix Motor III,Affluence_Proxy,Luxury_Dealer,-6.148837599999999,106.8875954,"Jl. Yos Sudarso No.87-88, RT.10/RW.11, Sunter Jaya, Kec. Tj. Priok, Jkt Utara, Daerah Khusus Ibukota Jakarta 14240, Indonesia","Jl. Yos Sudarso No.87-88, RT.10/RW.11, Sunter Jaya, Jkt Utara",4.5,15,,(021) 70701838,,"car_dealer, store, point_of_interest, establishment",True,Central_Jakarta_South,luxury car dealer,True,2025-08-05T10:05:30.675957
ChIJyaNeLQPxaS4RyO7RghMdbAs,Bimmeroom,Affluence_Proxy,Luxury_Dealer,-6.252517399999999,106.7730682,"Jl. Bendi Besar No.3, Kby. Lama Utara, Kec. Kby. Lama, Kota Jakarta Selatan, Daerah Khusus Ibukota Jakarta 12240, Indonesia","Jl. Bendi Besar No.3, Kby. Lama Utara, Kota Jakarta Selatan",4.5,260,http://www.bimmeroom.com/,,,"car_dealer, store, car_repair, point_of_interest, establishment",True,Central_Jakarta_South,bmw dealer,True,2025-08-05T10:05:32.216354
ChIJq3FLNQvwaS4R89IRqKynKSs,PT Bestindo Car Utama,Affluence_Proxy,Luxury_Dealer,-6.281813,106.727722,"CBD Bintaro Jaya, Jalan Jend. Sudirman Sektor 7 Kav. B6 No. 1, Pd. Jaya, Kec. Pd. Aren, Kota Tangerang Selatan, Banten 15224, Indonesia","CBD Bintaro Jaya, Jalan Jend. Sudirman Sektor 7 Kav. B6 No. 1, Pd. Jaya, Kota Tangerang Selatan",4.5,637,https://bmw-bestindo.co.id/,(021) 74868000,,"car_repair, car_dealer, store, point_of_interest, establishment",True,South_Jakarta_Pondok_Indah,luxury car dealer,True,2025-08-05T10:08:21.215914
ChIJMxjHnPH1aS4Rj0hDMXpLtqA,Bafar Cars,Affluence_Proxy,Luxury_Dealer,-6.152304099999999,106.8465101,"Ps. Mobil Kemayoran, Blk. Y No.1, Pademangan Tim., Kec. Pademangan, Jkt Utara, Daerah Khusus Ibukota Jakarta 14410, Indonesia","Ps. Mobil Kemayoran, Blk. Y No.1, Pademangan Tim., Jkt Utara",4.4,62,https://instagram.com/bafarcars?igshid=k4ude9kfs1tr,0811-1711-177,,"car_dealer, point_of_interest, store, establishment",True,Central_Jakarta_Core,luxury car dealer,True,2025-08-05T10:03:43.646551
ChIJw3MSmN71aS4RVCYeBSTxxH0,MJ Motor Airsupension MERCY BMW AUDI VW BENTLEY PORSCHE,Affluence_Proxy,Luxury_Dealer,-6.1616324,106.8214696,"wiryo pranoto, Jl. Sukarjo Wiryopranoto Batu Ceper VII, RT.8/RW.1, Kb. Klp., Kecamatan Gambir, Kota Jakarta Pusat, Daerah Khusus Ibukota Jakarta 10120, Indonesia","wiryo pranoto, Jl. Sukarjo Wiryopranoto Batu Ceper VII, RT.8/RW.1, Kb. Klp., Kota Jakarta Pusat",4.4,83,,0813-1542-4499,,"car_repair, store, point_of_interest, establishment",True,Central_Jakarta_Core,porsche,True,2025-08-05T10:03:49.880649
ChIJ63u5gmDxaS4RLL4P-mwZeyg,Poins auto gallery Antasari,Affluence_Proxy,Luxury_Dealer,-6.2722302,106.808568,"B Jl. Pangeran Antasari No.8B 1, RT.1/RW.1, Cipete Sel., Kec. Cilandak, Kota Jakarta Selatan, Daerah Khusus Ibukota Jakarta 12410, Indonesia","B Jl. Pangeran Antasari No.8B 1, RT.1/RW.1, Cipete Sel., Kota Jakarta Selatan",4.4,10,,0818-0772-8459,,"car_dealer, point_of_interest, store, establishment",True,South_Jakarta_Kemang,bmw dealer,True,2025-08-05T10:06:58.402643
ChIJ67XafHzmaC4R3IxErdcGfcM,"OLXmobbi Store - Arteri Cilandak, Jakarta",Affluence_Proxy,Luxury_Dealer,-6.2928809,106.8011042,"Jl. TB Simatupang No.25, Cilandak Bar., Kec. Cilandak, Kota Jakarta Selatan, Daerah Khusus Ibukota Jakarta 12430, Indonesia","Jl. Tahi Bonar Simatupang No.25, Cilandak Bar., Kota Jakarta Selatan",4.3,655,https://www.olx.co.id/olxmobbi,0852-8270-7853,,"car_dealer, store, point_of_interest, establishment",True,South_Jakarta_Kemang,porsche,True,2025-08-05T10:07:01.322017
ChIJcXqMZ3rxaS4R6UQnum_DLVM,BMW Jakarta Promo,Affluence_Proxy,Luxury_Dealer,-6.292723899999999,106.7905664,"Jl. R.A. Kartini No.Kav.203 11, RT.11/RW.4, Cilandak Bar., Kec. Cilandak, Jakarta, Daerah Khusus Ibukota Jakarta 12430, Indonesia","Jl. R.A. Kartini No.Kav.203 11, RT.11/RW.4, Cilandak Bar., Jakarta",4,3,,0813-8177-4567,,"car_dealer, point_of_interest, store, establishment",True,South_Jakarta_Kemang,bmw dealer,True,2025-08-05T10:06:58.245888
ChIJfVO7oBDzaS4Rp7uRUqBGfnw,Sarana autoservice AC mercy bmw,Affluence_Proxy,Luxury_Dealer,-6.2239077,106.8489842,"Jl. KH Abdullah Syafei syafi'ie No.21, RT.1/RW.1, Manggarai Sel., Kec. Tebet, Jakarta, Daerah Khusus Ibukota Jakarta 12860, Indonesia","Jl. KH Abdullah Syafei syafi'ie No.21, RT.1/RW.1, Manggarai Sel., Jakarta",4,92,,,,"store, point_of_interest, establishment",True,South_Jakarta_Kemang,bmw dealer,True,2025-08-05T10:06:59.676504
ChIJAXWYKQD3aS4RgbVwBf0T6zA,Teddy Equinox,Affluence_Proxy,Premium_Fitness,-6.1597279,106.8023681,"Gg. Gerindo 4 No.2, RT.7/RW.4, Duri Sel., Kec. Tambora, Kota Jakarta Barat, Daerah Khusus Ibukota Jakarta 11270, Indonesia","Gg. Gerindo 4 No.2, RT.7/RW.4, Duri Sel., Kota Jakarta Barat",,0,,,,"point_of_interest, establishment",True,Central_Jakarta_Core,equinox,,2025-08-05T10:03:19.333456
ChIJz9G3IEnxaS4RDFq0jWVhQ3A,EGO,Affluence_Proxy,Premium_Fitness,-6.2256942,106.7989969,"Jl. Asia Afrika No.8, RT.1/RW.3, Gelora, Kecamatan Tanah Abang, Kota Jakarta Pusat, Daerah Khusus Ibukota Jakarta 10270, Indonesia","Plaza Senayan Mall, Plaza Senayan, Jl. Asia Afrika No.8, RT.1/RW.3, Gelora, Central Jakarta City",,0,,(021) 5725559,,"restaurant, point_of_interest, food, establishment",True,Central_Jakarta_Core,equinox,False,2025-08-05T10:03:19.809090
ChIJE--JiyXzaS4R2_pemtvbc0c,PT Daya Equinox Sentosa,Affluence_Proxy,Premium_Fitness,-6.2698645,106.8304923,"Globe Building, Jl. Buncit Raya No.Kav. 31-33 4th Floor, RT.9/RW.5, Kalibata, Kec. Pancoran, Kota Jakarta Selatan, Daerah Khusus Ibukota Jakarta 12740, Indonesia","Globe Building, Jl. Buncit Raya No.Kav. 31-33 4th Floor, RT.9/RW.5, Kalibata, Kota Jakarta Selatan",,0,,(021) 79187006,,"point_of_interest, establishment",False,Central_Jakarta_South,equinox,,2025-08-05T10:05:12.536843
ChIJ93hn5aHxaS4RDIYJ5BCrDK8,Equinox Publishing,Affluence_Proxy,Premium_Fitness,-6.2635665,106.7935372,"Jl. Malabar 4 Gandaria Utara Kebayoran Baru Jakarta Selatan DKI Jakarta, RT.7/RW.7, Gandaria Utara, Kec. Kby. Baru, Kota Jakarta Selatan, Daerah Khusus Ibukota Jakarta 12140, Indonesia","Jl. Malabar 4 Gandaria Utara Kebayoran Baru Jakarta Selatan DKI Jakarta, RT.7/RW.7, Gandaria Utara, Kota Jakarta Selatan",,0,https://www.equinoxpub.com/home/,(021) 8297734,,"point_of_interest, establishment",True,Central_Jakarta_South,equinox,,2025-08-05T10:05:12.703251
ChIJZYg0vjryaS4RdSp0dYoEYp8,Jln. Warung Jati Barat V,Affluence_Proxy,Premium_Fitness,-6.269299999999999,106.83107,"Kalibata, Pancoran, South Jakarta City, Jakarta, Indonesia","Kalibata, South Jakarta City",,0,,,,"transit_station, point_of_interest, establishment",True,Central_Jakarta_South,equinox,,2025-08-05T10:05:13.167323
ChIJoaqO2xT7aS4RmJLSQuvyqtU,PT EQUINOX GROUP INDONESIA,Affluence_Proxy,Premium_Fitness,-6.3005283,106.7176448,"Sudimara Forestwalk, Albizia Tower, Kota Tangerang Selatan, Banten 15413, Indonesia","Sudimara Forestwalk, South Tangerang City",,0,https://equinox.biz.id/,0851-5544-2924,,"point_of_interest, establishment",True,South_Jakarta_Pondok_Indah,equinox,False,2025-08-05T10:08:07.492453
ChIJ1WBtGgD1aS4Rd5ChAMIJN04,20FIT Kuningan,Affluence_Proxy,Premium_Fitness,-6.2073261,106.8288667,"Jl. Setia Budi Utara Raya No.5, RT.5/RW.1, Kuningan, Karet Kuningan, Kecamatan Setiabudi, Kota Jakarta Selatan, Daerah Khusus Ibukota Jakarta 12940, Indonesia","Jl. Setia Budi Utara Raya No.5, RT.5/RW.1, Kuningan, Karet Kuningan, Kota Jakarta Selatan",5,64,https://20fit.id/,0877-7671-2304,,"gym, health, point_of_interest, establishment",True,Central_Jakarta_Core,premium gym,True,2025-08-05T10:03:03.227595
ChIJ0eHfQQD1aS4R4N6-E-0Jn0w,Stellar Powerhouse Pulomas,Affluence_Proxy,Premium_Fitness,-6.1740013,106.8815094,"Jl. Pulo Mas Barat IV No.97, Kayu Putih, Kec. Pulo Gadung, Kota Jakarta Timur, Daerah Khusus Ibukota Jakarta 13210, Indonesia","Jl. Pulo Mas Barat IV No.97, Kayu Putih, Kota Jakarta Timur",5,15,http://gostellar.id/,0822-7766-4141,,"gym, health, point_of_interest, establishment",True,Central_Jakarta_Core,premium gym,True,2025-08-05T10:03:03.894307
ChIJa54sy23xaS4RA9qMili2Jsg,GAON Pilates Club | Gunawarman,Affluence_Proxy,Premium_Fitness,-6.2358771,106.8077869,"Third Floor, Jl. Gunawarman No.41, Rw. Bar., Kec. Kby. Baru, Kota Jakarta Selatan, Daerah Khusus Ibukota Jakarta 12180, Indonesia","Third Floor, Jl. Gunawarman No.41, Kota Jakarta Selatan",5,19,https://gaonpilatesclub.id/,0818-1875-8484,,"gym, health, point_of_interest, establishment",True,Central_Jakarta_Core,premium gym,,2025-08-05T10:03:04.542391
ChIJRadaIizxaS4RFwzTxAH-6Qc,Precision Gym,Affluence_Proxy,Premium_Fitness,-6.2364621,106.7980657,"Jl. Sisingamangaraja No.21, RT.1/RW.4, Gunung, Kec. Kby. Baru, Kota Jakarta Selatan, Daerah Khusus Ibukota Jakarta 12120, Indonesia","Jl. Sisingamangaraja No.21, RT.1/RW.4, Gunung, Kota Jakarta Selatan",5,22,https://precisiongym.id/,0811-1010-9689,,"gym, health, point_of_interest, establishment",True,Central_Jakarta_Core,premium gym,True,2025-08-05T10:03:05.198627
ChIJNUbdZ7zxaS4R51sOnt_alkw,Level Studio - Jakarta,Affluence_Proxy,Premium_Fitness,-6.229244599999999,106.8068465,"ASHTA at District 8 level UG, Unit 09-11, Jl. Jenderal Sudirman, Kav 52.53 SCBD Lot 28, RT.8/RW.3, Senayan, Kec. Kby. Baru, Kota Jakarta Selatan, Daerah Khusus Ibukota Jakarta 12190, Indonesia","ASHTA at District 8 level UG, Unit 09-11, Jl. Jenderal Sudirman, Kav 52.53 SCBD Lot 28, RT.8/RW.3, Senayan, Kota Jakarta Selatan",5,476,https://levelstudio.id/,0811-1953-835,,"gym, health, point_of_interest, establishment",True,Central_Jakarta_Core,premium gym,True,2025-08-05T10:03:05.936662
ChIJlQfk_3cdai4RnN_jrDbzbBs,Sun Yoga PIK Studio,Affluence_Proxy,Premium_Fitness,-6.116552299999999,106.7579942,"Ruko Arcade, Jl. Pantai Indah Utara 2 Blok 3 ME & 3 MF, RT.2/RW.7, Kapuk Muara, Kecamatan Penjaringan, Jkt Utara, Daerah Khusus Ibukota Jakarta 14460, Indonesia","Ruko Arcade, Jl. Pantai Indah Utara 2 Blok 3 ME & 3 MF, RT.2/RW.7, Kapuk Muara, Jkt Utara",5,20,http://sunyoga.id/,0813-1826-8168,,"gym, health, point_of_interest, establishment",True,Central_Jakarta_Core,premium gym,True,2025-08-05T10:03:06.614406
ChIJGxE4fUX3aS4RNNq50lS9CX0,GROUND Private Training,Affluence_Proxy,Premium_Fitness,-6.1792719,106.7571214,"Taman kedoya indah RB/8C, RT.9/RW.5, Kedoya Sel., Jakarta, Kota Jakarta Barat, Daerah Khusus Ibukota Jakarta 11520, Indonesia","Taman kedoya indah RB/8C, RT.9/RW.5",5,8,,0852-2255-7765,,"gym, health, point_of_interest, establishment",True,Central_Jakarta_Core,premium gym,True,2025-08-05T10:03:07.438920
ChIJJ1AIhQbxaS4R7QdDCOHI6Nc,Reload Gym Senopati,Affluence_Proxy,Premium_Fitness,-6.2356848,106.8136986,"LDS Building, 2nd Floor, Jl. Suryo No.34, RT.10/RW.3, Rw. Bar., Kec. Kby. Baru, Jakarta, Daerah Khusus Ibukota Jakarta 12130, Indonesia","LDS Building, 2nd Floor, Jl. Suryo No.34, RT.10/RW.3, Jakarta",5,65,https://reloadgym.com/,0812-8254-1931,,"gym, health, point_of_interest, establishment",True,Central_Jakarta_Core,premium gym,True,2025-08-05T10:03:07.605510
ChIJ1XDbzVn3aS4Rxn31f9Tafc8,Griya Gym Fitness,Affluence_Proxy,Premium_Fitness,-6.142648899999999,106.779286,"Jl. Gusti Permata 4 No.27 Blok H, Pejagalan, Kecamatan Penjaringan, Jkt Utara, Daerah Khusus Ibukota Jakarta 14450, Indonesia","Jl. Gusti Permata 4 No.27 Blok H, Pejagalan, Jkt Utara",5,42,,0822-4925-2665,,"gym, health, point_of_interest, establishment",True,Central_Jakarta_Core,premium gym,True,2025-08-05T10:03:07.921535
ChIJecVpmMXzaS4Ruk63ymcwoXY,K Fitness Jatinegara,Affluence_Proxy,Premium_Fitness,-6.219306,106.8659592,"Jl. Jatinegara Barat 1 No.21-22, Bali Mester, Kecamatan Jatinegara, Jakarta, Daerah Khusus Ibukota Jakarta 13310, Indonesia","Jl. Jatinegara Barat 1 No.21-22, Bali Mester, Jakarta",5,109,https://kfitness.id/,0851-7335-0052,,"gym, point_of_interest, health, establishment",True,Central_Jakarta_Core,premium gym,True,2025-08-05T10:03:09.091445
ChIJX5TfJ-X1aS4RKBZBG6l-HiI,Musclecamp Gym,Affluence_Proxy,Premium_Fitness,-6.171988499999999,106.8538733,"Jalan Timah.23, Jl. Timah No.23, RT.6/RW.2, Harapan Mulya, Kec. Kemayoran, Kota Jakarta Pusat, Daerah Khusus Ibukota Jakarta 10640, Indonesia","Jalan Timah.23, Jl. Timah No.23, RT.6/RW.2, Harapan Mulya, Kota Jakarta Pusat",5,757,,0821-2212-6287,,"gym, point_of_interest, health, establishment",True,Central_Jakarta_Core,celebrity fitness,True,2025-08-05T10:03:17.131395
ChIJoS3RW1TxaS4Rt5AygfuX-PA,"Equnix Business Solutions, PT",Affluence_Proxy,Premium_Fitness,-6.1709786,106.8097572,"Jl. Kyai Caringin No.12C, Cideng, Kecamatan Gambir, Jakarta, Daerah Khusus Ibukota Jakarta 10150, Indonesia","Jl. Kyai Caringin No.12C, Cideng, Jakarta",5,22,https://equnix.asia/,0811-1188-812,,"point_of_interest, establishment",True,Central_Jakarta_Core,equinox,True,2025-08-05T10:03:19.502229
ChIJWSD_CN7zaS4RyeZxLis_Z30,Fatloss Republic,Affluence_Proxy,Premium_Fitness,-6.281664399999999,106.7805755,"Jl. Metro Pondok Indah No.UF 15-24 Lt.2, Pondok Indah, Kec. Kby. Lama, Kota Jakarta Selatan, Daerah Khusus Ibukota Jakarta 12310, Indonesia","Jl. Metro Pondok Indah No.UF 15-24 Lt.2, Pondok Indah, Kota Jakarta Selatan",5,56,https://www.fatlossrepublic.com/,0821-8080-8041,,"gym, health, point_of_interest, establishment",True,Central_Jakarta_South,premium gym,True,2025-08-05T10:05:06.262170
ChIJzc2fSfHzaS4RN5_79vj5zr4,PT Equinox Sentra Bahari,Affluence_Proxy,Premium_Fitness,-6.2699181,106.8304822,"Globe Building, Jl. Buncit Raya No.Kav. 31-33 4th Floor, RT.6/RW.14, Kb. Baru, Kec. Tebet, Kota Jakarta Selatan, Daerah Khusus Ibukota Jakarta 12740, Indonesia","Globe Building, Jl. Buncit Raya No.Kav. 31-33 4th Floor, RT.6/RW.14, Kb. Baru, Kota Jakarta Selatan",5,5,https://esb.agency/,(021) 79187006,,"point_of_interest, establishment",True,Central_Jakarta_South,equinox,True,2025-08-05T10:05:12.236821
ChIJfRreyqbzaS4RZodQ0EVgFkw,PT Perusahaan Pelayaran Equinox,Affluence_Proxy,Premium_Fitness,-6.2698508,106.8305042,"Jl. Wr. Jati Barat No.Kav. 31-33, Kalibata, Kec. Pancoran, Kota Jakarta Selatan, Daerah Khusus Ibukota Jakarta 12740, Indonesia","Jl. Wr. Jati Barat No.Kav. 31-33, Kalibata, Kota Jakarta Selatan",5,1,https://ppequinox.com/,,,"point_of_interest, establishment",True,Central_Jakarta_South,equinox,True,2025-08-05T10:05:12.389090
ChIJAWjxxTryaS4RmLWhD7cdbqY,PT Pesona Sentra Utama,Affluence_Proxy,Premium_Fitness,-6.2698882,106.8304851,"Globe Building Lt. 6, Jl. Warung Jati Barat Kav 31-33 Jalan Warung Jati Barat, Kav. 31-33, RT.9/RW.5, Kalibata, Pancoran, South Jakarta City, Jakarta 12740, Indonesia","Globe Building Lt. 6, Jl. Warung Jati Barat Kav 31-33 Jalan Warung Jati Barat, Kav. 31-33, RT.9/RW.5, Kalibata, South Jakarta City",5,1,https://psu.co.id/,(021) 79187005,,"point_of_interest, establishment",True,Central_Jakarta_South,equinox,True,2025-08-05T10:05:12.860589
ChIJm0pi9KXxaS4RKTQmHwuBSac,Money Changer Berkah Widjojo - Pondok Indah Mall 2 Utara (Basement 1 Utara) - Jakarta,Affluence_Proxy,Premium_Fitness,-6.2655008,106.7829911,"Pondok Indah Mall 2 PIM 2 Basement 1 Utara, Turun Dari Eskalator Montblanc/Lacoste, Dibawah Celebrity Fitness/Kari Ulam, Pd. Pinang, Kec. Kby. Lama, Kota Jakarta Selatan, Daerah Khusus Ibukota Jakarta 12310, Indonesia","Pondok Indah Mall 2 PIM 2 Basement 1 Utara, Turun Dari Eskalator Montblanc/Lacoste, Dibawah Celebrity Fitness/Kari Ulam",5,4150,https://sites.google.com/view/bwv-moneychanger/home,0817-9199-080,,"finance, point_of_interest, establishment",True,South_Jakarta_Kemang,celebrity fitness,True,2025-08-05T10:06:46.460344
ChIJ18m6vuT7aS4RB7drCBTjbrI,KX Pilates Bintaro,Affluence_Proxy,Premium_Fitness,-6.2788661,106.7220865,"Heritage Lifestyle Hub 2nd Floor, Jl. Jend. Sudirman No.6 Blok A2, Pd. Jaya, Kec. Pd. Aren, Kota Tangerang Selatan, Banten 15220, Indonesia","Heritage Lifestyle Hub 2nd Floor, Jl. Jend. Sudirman No.6 Blok A2, Pd. Jaya, Kota Tangerang Selatan",5,33,https://kxpilates.id/,0811-1255-8008,,"gym, point_of_interest, health, establishment",True,South_Jakarta_Pondok_Indah,premium gym,True,2025-08-05T10:08:05.693353
ChIJFbdbM3z5aS4R2-SGzxt-TxM,King Fitness Metland,Affluence_Proxy,Premium_Fitness,-6.188776799999999,106.7119739,"Metland Puri, Ruko Grand Boulevard, Jl. Puri Utama No.5 Blok D1, Petir, Kec. Cipondoh, Kota Tangerang, Banten 15147, Indonesia","Metland Puri, Ruko Grand Boulevard, Jl. Puri Utama No.5 Blok D1, Petir, Kota Tangerang",5,10,https://www.instagram.com/kingfitness.id,0856-9481-4616,,"health, point_of_interest, establishment",True,West_Jakarta_Kebon_Jeruk,premium gym,True,2025-08-05T10:14:00.991177
ChIJA1lb91T3aS4RljwgwbfCFsI,SPORTIGO NUTRITION - Your Trusted Source for Premium Sport Nutrition,Affluence_Proxy,Premium_Fitness,-6.1597389,106.7344026,"Pergudangan Duta Indah Karya, Jl. Daan Mogot No.KM.13 Blok C No.5, Rw. Buaya, Kecamatan Cengkareng, Jakarta, Daerah Khusus Ibukota Jakarta 11740, Indonesia","Pergudangan Duta Indah Karya, Jl. Daan Mogot No.KM.13 Blok C No.5, Rw. Buaya, Jakarta",5,35,http://www.sportigo.co.id/,0878-6761-8171,,"food, point_of_interest, health, store, establishment",True,West_Jakarta_Grogol,premium gym,True,2025-08-05T10:15:20.949092
ChIJ__wYFAAdai4RVdXZt3sOsCo,Euphoria Movement Studio,Affluence_Proxy,Premium_Fitness,-6.112202099999999,106.7448597,"No. 6 - 8, Rukan Cordoba, Jl. Pantai Indah Kapuk Blok G, Kamal Muara, Kecamatan Penjaringan, Jakarta, Daerah Khusus Ibukota Jakarta 14470, Indonesia","No. 6 - 8, Rukan Cordoba, Cardoba, Jl. Pantai Indah Kapuk Blok G, Kamal Muara, Jakarta",5,49,,0812-600-123,,"point_of_interest, establishment",True,North_Jakarta_PIK,premium gym,True,2025-08-05T10:17:39.498307
ChIJeWHO-rodai4R3r3inliHsMQ,Smooch Signature,Affluence_Proxy,Premium_Fitness,-6.0866799,106.7371555,"Rukan Soho Rodeo Drive, Jl. Laksamana Yos Sudarso Kapuk No.2 Unit 008 & 009, Daerah Khusus Ibukota Jakarta 14470, Indonesia","Rukan Soho Rodeo Drive, Jl. Laksamana Yos Sudarso Kapuk No.2 Unit 008 & 009",5,30,,0811-1182-7588,,"beauty_salon, gym, hair_care, health, point_of_interest, establishment",True,North_Jakarta_PIK,premium gym,True,2025-08-05T10:17:39.663996
ChIJS912AQCLaS4R8SfDpZmMr2k,DAB Fitness,Affluence_Proxy,Premium_Fitness,-6.184840899999999,106.9658568,"Metland, Ruko Maison De Wisteria, Jalan Menteng Niaga No.15 Collins 1 Ujung Menteng, Jl. Menteng Niaga No.15, Collins 1, Cakung, East Jakarta City, Jakarta 13960, Indonesia","Metland, Ruko Maison De Wisteria, Jalan Menteng Niaga No.15 Collins 1 Ujung Menteng, Jl. Menteng Niaga No.15, Collins 1, East Jakarta City",5,46,,0813-8531-4202,,"gym, health, point_of_interest, establishment",True,North_Jakarta_Kelapa_Gading,premium gym,True,2025-08-05T10:18:39.016584
ChIJCbgGUEL3aS4R6MYjY-7cIyI,FITX GYM Grogol,Affluence_Proxy,Premium_Fitness,-6.1649522,106.7832263,"Jl. Daan Mogot No.50, Jelambar, Kec. Grogol petamburan, Jakarta, Daerah Khusus Ibukota Jakarta 11460, Indonesia","Daan Mogot Rd No.50, Jelambar, Jakarta",4.9,272,https://www.fitxgym.id/,0811-8802-1085,,"gym, health, point_of_interest, establishment",True,Central_Jakarta_Core,premium gym,True,2025-08-05T10:03:02.873317
ChIJMxu5AF31aS4R_ttN6Xx2Kms,BFT THAMRIN,Affluence_Proxy,Premium_Fitness,-6.1992838,106.8222607,"Chubb Square, Thamrin Nine, Jl. M.H. Thamrin No.8-9 Lantai 7, Kb. Melati, Kecamatan Tanah Abang, Kota Jakarta Pusat, Daerah Khusus Ibukota Jakarta 10230, Indonesia","Chubb Square, Thamrin Nine, Jl. M.H. Thamrin No.8-9 Lantai 7, Kb. Melati, Kota Jakarta Pusat",4.9,71,https://www.bodyfittraining.com/,0852-1117-5511,,"gym, health, point_of_interest, establishment",True,Central_Jakarta_Core,premium gym,True,2025-08-05T10:03:03.389913
ChIJCVrnPgD1aS4RjMjKY5lwSqE,AbsoluteFit Menteng,Affluence_Proxy,Premium_Fitness,-6.202662,106.849888,"Jl. Proklamasi No.84, RT.1/RW.4, Pegangsaan, Kec. Menteng, Kota Jakarta Pusat, Daerah Khusus Ibukota Jakarta 10320, Indonesia","Jl. Proklamasi No.84, RT.1/RW.4, Pegangsaan, Kota Jakarta Pusat",4.9,555,https://www.instagram.com/absolutefit2play.menteng,0811-1452-556,,"gym, health, point_of_interest, establishment",True,Central_Jakarta_Core,premium gym,True,2025-08-05T10:03:03.724706
ChIJy-FuBsPxaS4RUumf-7Xgqhw,Forte Pilates,Affluence_Proxy,Premium_Fitness,-6.2314269,106.8091729,"Jl. Senopati No.66 Floor 3, RT.8/RW.3, Selong, Kec. Kby. Baru, Kota Jakarta Selatan, Daerah Khusus Ibukota Jakarta 12190, Indonesia","Jl. Senopati No.66 Floor 3, RT.8/RW.3, Selong, South Jakarta City",4.9,97,http://fortepilates.co/,0812-8333-6283,,"gym, health, point_of_interest, establishment",True,Central_Jakarta_Core,premium gym,True,2025-08-05T10:03:04.380508
ChIJV3L3R7T1aS4R_afJPVPqlss,Human Balance,Affluence_Proxy,Premium_Fitness,-6.1456336,106.8963939,"Ruko Gading Kirana Jl. Boulevard Barat A6B No.30-31, Kel, RT.18/RW.8, Klp. Gading Bar., Kec. Klp. Gading, Jkt Utara, Daerah Khusus Ibukota Jakarta 14240, Indonesia","Ruko Gading Kirana Jl. Boulevard Barat A6B No.30-31, Kel, RT.18/RW.8, Klp. Gading Bar., Jkt Utara",4.9,78,https://reps-id.com/human-balance-gym-ala-korea-resmi-dibuka-di-kelapa-gading/,0812-9655-7278,,"gym, health, point_of_interest, establishment",True,Central_Jakarta_Core,premium gym,True,2025-08-05T10:03:05.041429
ChIJk1RNxMX1aS4RbECe1EO60Ck,Oxylone Fitness | Gym Matraman,Affluence_Proxy,Premium_Fitness,-6.2013839,106.855476,"Jl. Matraman Raya No.30, RT.2/RW.1, Kb. Manggis, Kec. Matraman, Jakarta, Daerah Khusus Ibukota Jakarta 13150, Indonesia","Jl. Matraman Raya No.30, RT.2/RW.1, Kb. Manggis, Jakarta",4.9,343,https://www.instagram.com/oxylone.fitness/?hl=en,0877-7811-0049,,"gym, health, point_of_interest, establishment",True,Central_Jakarta_Core,premium gym,True,2025-08-05T10:03:05.762629
ChIJaRvkyXv3aS4Ro4DWlqh2uOM,Limitless Fitness,Affluence_Proxy,Premium_Fitness,-6.1695082,106.7866445,"Jl. Universitas Tarumanagara Kampus II Jl. Tanjung Duren Raya, Tj. Duren Utara, Kec. Grogol petamburan, Kota Jakarta Barat, Daerah Khusus Ibukota Jakarta 11470, Indonesia","Parking lot, Jl. Universitas Tarumanagara Kampus II Jl. Tanjung Duren Raya, North Tanjung Duren, West Jakarta City",4.9,306,http://www.limitlessfitness.id/,0896-5480-8887,,"gym, health, point_of_interest, establishment",True,Central_Jakarta_Core,premium gym,True,2025-08-05T10:03:06.278692
ChIJewAAQAH0aS4RFIu0oxfKTHw,Empire Fit Club,Affluence_Proxy,Premium_Fitness,-6.2182697,106.803994,"Gelora Bung Karno Main Stadium Zone 7, Jl. Gerbang Pemuda, RT.1/RW.3, Gelora, Kecamatan Tanah Abang, Kota Jakarta Pusat, Daerah Khusus Ibukota Jakarta 10270, Indonesia","Gelora Bung Karno Main Stadium Zone 7, Jl. Gerbang Pemuda, RT.1/RW.3, Gelora, Kota Jakarta Pusat",4.9,413,,0811-8248-882,,"gym, point_of_interest, health, establishment",True,Central_Jakarta_Core,premium gym,True,2025-08-05T10:03:08.422775
ChIJUz4Ub-DxaS4Ry0FlurBXRtQ,Hustle Mahakam,Affluence_Proxy,Premium_Fitness,-6.243708,106.796366,"Jl. Mahakam No.28, Kramat Pela, Kec. Kby. Baru, Kota Jakarta Selatan, Daerah Khusus Ibukota Jakarta 12130, Indonesia","Jl. Mahakam No.28, Kramat Pela, Kota Jakarta Selatan",4.9,55,https://www.hustle.co.id/,0812-7818-0884,,"cafe, gym, food, point_of_interest, health, establishment",True,Central_Jakarta_Core,premium gym,True,2025-08-05T10:03:09.254900
ChIJqbT2Ai71aS4R9a67ex3UkWw,Hidden Gym Fitness Centre,Affluence_Proxy,Premium_Fitness,-6.203719,106.8678787,"Jl. Cengkir No.9 10, RT.10/RW.12, Utan Kayu Sel., Kec. Matraman, Kota Jakarta Timur, Daerah Khusus Ibukota Jakarta 13120, Indonesia","Jl. Cengkir No.9 10, RT.10/RW.12, Utan Kayu Sel., Kota Jakarta Timur",4.9,35,,,,"gym, point_of_interest, health, establishment",True,Central_Jakarta_Core,premium gym,True,2025-08-05T10:03:09.915713
ChIJy9M3hWHxaS4RRyNijEnxO3w,Kida,Affluence_Proxy,Premium_Fitness,-6.257281000000001,106.80196,"Jl. Darmawangsa-X No.19, Cipete Utara, Kec. Kby. Baru, Kota Jakarta Selatan, Daerah Khusus Ibukota Jakarta 12150, Indonesia","Jl. Darmawangsa-X No.19, Cipete Utara, Kota Jakarta Selatan",4.9,34,,0878-1032-0450,,"gym, health, point_of_interest, establishment",True,Central_Jakarta_South,premium gym,True,2025-08-05T10:05:06.926887
ChIJq5dADGb3aS4R1KBs1dvOVgc,BFT PURI INDAH,Affluence_Proxy,Premium_Fitness,-6.188343799999999,106.7561775,"Jl. Pesanggrahan No.2, Kembangan Sel., Kec. Kembangan, Jakarta, Daerah Khusus Ibukota Jakarta 11610, Indonesia","Jl. Pesanggrahan No.2, Kembangan Sel., Jakarta",4.9,66,https://www.instagram.com/bft_puriindah/reels/,0812-8108-3100,,"point_of_interest, establishment",True,West_Jakarta_Kebon_Jeruk,premium gym,True,2025-08-05T10:14:01.157333
ChIJsSpBtrH3aS4Rv3ShHGGpZfw,Studioku.id,Affluence_Proxy,Premium_Fitness,-6.1670474,106.762691,"Ruko Green Garden, Jl. Komp. Green Garden No.49 Blok I-9, Taman kedoya, Jakarta, Kota Jakarta Barat, Daerah Khusus Ibukota Jakarta 14140, Indonesia","Ruko Green Garden, Komp. Ruko Green Garden Blk. A, Jl. Komp. Green Garden No.49 Blok I-9, Taman kedoya, Kota Jakarta Barat",4.9,86,https://instagram.com/sp_studioku?igshid=MzRlODBiNWFlZA==,0851-5617-7762,,"gym, health, store, point_of_interest, establishment",True,West_Jakarta_Grogol,premium gym,True,2025-08-05T10:15:21.283843
ChIJo0mJhnfxaS4R-QHHwDYvC-4,Duo Shine Fitness Komp. DKI Joglo,Affluence_Proxy,Premium_Fitness,-6.2227909,106.7371852,"6, RT.6/RW.8, Joglo, Kembangan, West Jakarta City, Jakarta 11640, Indonesia","6, RT.6/RW.8, Joglo, West Jakarta City",4.9,557,,,,"gym, health, point_of_interest, establishment",True,West_Jakarta_Grogol,premium gym,True,2025-08-05T10:15:21.446793
ChIJ0SH5UADzaS4RsfPWfw6kjd0,FTL Gym Satrio,Affluence_Proxy,Premium_Fitness,-6.2184726,106.8197403,"Jl. Prof. DR. Satrio Blok Buntu No.275, RT.1/RW.1, Kuningan, Karet Kuningan, Kecamatan Setiabudi, Kota Jakarta Selatan, Daerah Khusus Ibukota Jakarta 12930, Indonesia","Jl. Prof. DR. Satrio Blok Buntu No.275, RT.1/RW.1, Kuningan, Karet Kuningan, Kota Jakarta Selatan",4.9,551,,,,"gym, point_of_interest, health, establishment",True,West_Jakarta_Taman_Anggrek,premium gym,,2025-08-05T10:16:37.840479
ChIJH0SssSf1aS4R90qLqDfz1A4,Motion Pilates Rawamangun,Affluence_Proxy,Premium_Fitness,-6.1961423,106.891457,"Jl. Paus No.91, RT.1/RW.8, Jati, Kec. Pulo Gadung, Kota Jakarta Timur, Daerah Khusus Ibukota Jakarta 13220, Indonesia","Jl. Paus No.91, RT.1/RW.8, Jati, Kota Jakarta Timur",4.8,13,,0822-6103-9002,,"gym, health, point_of_interest, establishment",True,Central_Jakarta_Core,premium gym,True,2025-08-05T10:03:02.368083
ChIJCUFGtRz3aS4RWmFvFAEbyhU,Playfield Premium Club,Affluence_Proxy,Premium_Fitness,-6.2053657,106.7570645,"Jl. K.H. Nasir No.40, RT.1/RW.5, Srengseng, Kec. Kembangan, Kota Jakarta Barat, Daerah Khusus Ibukota Jakarta 11630, Indonesia","Jl. K.H. Nasir No.40, RT.1/RW.5, Srengseng, Kota Jakarta Barat",4.8,45,https://instagram.com/playfield.premiumclub?igshid=MmIzYWVlNDQ5Yg==,0818-998-158,,"night_club, bar, gym, spa, health, point_of_interest, establishment",True,Central_Jakarta_Core,premium gym,True,2025-08-05T10:03:02.537324
ChIJDeZg84PxaS4RsjZSfJw2_qk,FIT HUB ITC Permata Hijau,Affluence_Proxy,Premium_Fitness,-6.221330099999999,106.7840101,"Grand Itc Permata Hijau, Jl. Arteri Permata Hijau No.11 Lantai Lower Ground, RT.11/RW.10, Grogol Utara, Kec. Kby. Lama, Kota Jakarta Selatan, Daerah Khusus Ibukota Jakarta 12210, Indonesia","Grand Itc Permata Hijau, Ruko ITC Permata Hijau, Jl. Arteri Permata Hijau No.11 Lantai Lower Ground, RT.11/RW.10, Grogol Utara, Kota Jakarta Selatan",4.8,160,https://fithub.id/free-trial/v3/fit-hub-itc-permata-hijau?source=GoogleMaps,0852-1309-8976,,"gym, point_of_interest, health, establishment",True,Central_Jakarta_Core,premium gym,True,2025-08-05T10:03:08.759547
ChIJD6kPXGj1aS4RNyq8m-lLVwQ,FIT HUB Maspion Plaza,Affluence_Proxy,Premium_Fitness,-6.1414114,106.8338526,"Jl. Gn. Sahari No.Kav.18, Pademangan Bar., Kec. Pademangan, Jkt Utara, Daerah Khusus Ibukota Jakarta 14420, Indonesia","Maspion Plaza, Jl. Gn. Sahari No.Kav.18, West Pademangan, North Jakarta City",4.8,200,https://fithub.id/free-trial/v3/fit-hub-maspion-plaza/?source=Google%20Maps,0812-8333-3158,,"gym, point_of_interest, health, establishment",True,Central_Jakarta_Core,premium gym,True,2025-08-05T10:03:11.082737
ChIJq-7rjRX1aS4R-QJonBkz-i0,AWR FITNESS INDONESIA,Affluence_Proxy,Premium_Fitness,-6.1934309,106.8933216,"Jl. Pemuda No.292, RT.3/RW.1, Jati, Kec. Pulo Gadung, Kota Jakarta Timur, Daerah Khusus Ibukota Jakarta 13220, Indonesia","Jl. Pemuda No.292, RT.3/RW.1, Jati, Kota Jakarta Timur",4.8,143,,0817-9229-292,,"gym, point_of_interest, health, establishment",True,Central_Jakarta_Core,celebrity fitness,True,2025-08-05T10:03:16.254795
ChIJ4W6e5LYBai4RBzBUyZrIQUM,TRAINSTATION STUDIO,Affluence_Proxy,Premium_Fitness,-6.2339414,106.8130293,"First Floor, Jl. Suryo No.5 3, RT.3/RW.6, Rw. Bar., Kec. Kby. Baru, Kota Jakarta Selatan, Daerah Khusus Ibukota Jakarta 12180, Indonesia","First Floor, Jl. Suryo No.5 3, RT.3/RW.6, Rw. Bar., Kota Jakarta Selatan",4.8,61,,0821-1227-7788,,"gym, point_of_interest, health, establishment",True,Central_Jakarta_Core,celebrity fitness,True,2025-08-05T10:03:17.296311
ChIJp6YbzvzxaS4RTVtZk0dNIvU,BODYFIT JAKARTA,Affluence_Proxy,Premium_Fitness,-6.2647903,106.8160172,"8, Jl. Kemang Raya No.70, RT.8/RW.2, Bangka, Kec. Mampang Prpt., Kota Jakarta Selatan, Daerah Khusus Ibukota Jakarta 12730, Indonesia","8, Jl. Kemang Raya No.70, RT.8/RW.2, Bangka, Kota Jakarta Selatan",4.8,152,,0813-1445-6780,,"gym, health, point_of_interest, establishment",True,Central_Jakarta_South,celebrity fitness,True,2025-08-05T10:05:10.805896
ChIJX6sOm-jtaS4RwHcPPe8Wmso,Klub Ade Rai Ragunan,Affluence_Proxy,Premium_Fitness,-6.304073,106.821109,"Jl. Harsono RM, RT.6/RW.7, Ragunan, Ps. Minggu, Kota Jakarta Selatan, Daerah Khusus Ibukota Jakarta 12550, Indonesia","Jl. Harsono RM, RT.6/RW.7, Ragunan, Kota Jakarta Selatan",4.8,163,https://www.instagram.com/klubaderai_ragunanofficial/,0895-1899-5222,,"gym, health, point_of_interest, establishment",True,South_Jakarta_Kemang,premium gym,True,2025-08-05T10:06:42.161981
ChIJq6f54Hcdai4RIdd4_fXmQUI,FIT HUB Elang Laut PIK,Affluence_Proxy,Premium_Fitness,-6.1240313,106.7431439,"Jl. Pantai Indah Selatan No.10, RT.3/RW.3, Kamal Muara, Kecamatan Penjaringan, Jkt Utara, Daerah Khusus Ibukota Jakarta 14470, Indonesia","Jl. Pantai Indah Selatan No.10, RT.3/RW.3, Kamal Muara, Jkt Utara",4.8,173,https://fithub.id/free-trial/v3/fit-hub-elang-laut-pik?source=Google%20Maps,0812-1368-7139,,"gym, point_of_interest, health, establishment",True,West_Jakarta_Kebon_Jeruk,premium gym,True,2025-08-05T10:14:00.666417
ChIJBYh077_3aS4RPga4MDO9TYw,FIT HUB Karang Mulya Raden Saleh,Affluence_Proxy,Premium_Fitness,-6.1947641,106.7243458,"Samping Apartemen, The NEST@Puri, Jl. Raden Saleh, RT.001/RW.012, Karang Mulya, Kec. Karang Tengah, Kota Tangerang, Banten 15157, Indonesia","Samping Apartemen, The NEST@Puri, Jl. Raden Saleh, RT.001/RW.012, Karang Mulya, Kota Tangerang",4.8,266,https://fithub.id/free-trial/v3/fit-hub-karang-mulya?source=GoogleMaps,0812-8768-8772,,"gym, point_of_interest, health, establishment",True,West_Jakarta_Kebon_Jeruk,premium gym,True,2025-08-05T10:14:00.826558
ChIJaw6aGcrxaS4Ru9Q7TAZqeto,Plaza Senayan Sports Hub Supported by ASICS,Affluence_Proxy,Premium_Fitness,-6.225056899999999,106.8004966,"Plaza Senayan, Jl. New Delhi No.8, RT.1/RW.3, Gelora, Kecamatan Tanah Abang, Kota Jakarta Pusat, Daerah Khusus Ibukota Jakarta 10270, Indonesia","Plaza Senayan, Jl. New Delhi No.8, RT.1/RW.3, Gelora, Kota Jakarta Pusat",4.8,117,,0815-1942-0480,,"point_of_interest, establishment",True,West_Jakarta_Kebon_Jeruk,premium gym,True,2025-08-05T10:14:01.324609
ChIJM234TVv2aS4RrS30k5DeKsc,V-Posture fitness sport club,Affluence_Proxy,Premium_Fitness,-6.1678488,106.7866967,"Hotel Ciputra, Jl. Letjen S. Parman lt 7, RT.11/RW.1, Slipi, Kec. Grogol petamburan, Kota Jakarta Barat, Daerah Khusus Ibukota Jakarta 11470, Indonesia","Hotel Ciputra, Jl. Letjen S. Parman lt 7, RT.11/RW.1, Slipi, Kota Jakarta Barat",4.8,104,"https://www.hotelciputra.com/x,972,16676,2359/fitness-center.html",(021) 56954753,,"gym, health, point_of_interest, establishment",True,West_Jakarta_Grogol,premium gym,True,2025-08-05T10:15:21.115577
ChIJu8K1N3cfai4Rcr4KC3e7fm4,Sangtum Fitness,Affluence_Proxy,Premium_Fitness,-6.127739699999999,106.9083842,"Jl. H. Murtado No.20, Tugu Utara, Kec. Koja, Jkt Utara, Daerah Khusus Ibukota Jakarta 14260, Indonesia","Jl. H. Murtado No.20, Tugu Utara, Jkt Utara",4.8,49,https://www.sangtum.com/,0851-1971-1891,,"gym, health, point_of_interest, establishment",True,North_Jakarta_Kelapa_Gading,premium gym,True,2025-08-05T10:18:38.849736
ChIJpU7yHyX1aS4R8UVl-pOpZko,FIT HUB Rawamangun,Affluence_Proxy,Premium_Fitness,-6.193997899999999,106.8949582,"Jl. Sunan Drajad No.39 D, RT.1/RW.8, Jati, Kec. Pulo Gadung, Kota Jakarta Timur, Daerah Khusus Ibukota Jakarta 13220, Indonesia","Jl. Sunan Drajad No.39 D, RT.1/RW.8, Jati, Kota Jakarta Timur",4.7,608,https://fithub.id/free-trial/v3/fit-hub-rawamangun/?source=Google%20Maps,0857-7217-3969,,"gym, point_of_interest, health, establishment",True,Central_Jakarta_Core,premium gym,True,2025-08-05T10:03:10.090063
ChIJ_0UYpOTzaS4RR21ojEwQZg0,6221 Fitness - Jakarta,Affluence_Proxy,Premium_Fitness,-6.2275123,106.8245762,"Bellagio Boutique Mall, Lantai UG.15, Jl. Mega Kuningan Barat No.3 Kav. E4, RT.5/RW.2, Kuningan, Kuningan Tim., Kecamatan Setiabudi, Jakarta, Daerah Khusus Ibukota Jakarta 12950, Indonesia","Bellagio Boutique Mall, Lantai UG.15, Jl. Mega Kuningan Barat No.3 Kav. E4, RT.5/RW.2, Kuningan Tim., Jakarta",4.7,84,https://www.instagram.com/6221fitness/,0811-1696-221,,"gym, point_of_interest, health, establishment",True,Central_Jakarta_Core,premium gym,True,2025-08-05T10:03:10.586212
ChIJA2hl7a33aS4RAFWUBkJ3icc,FIT HUB Gajah Mada,Affluence_Proxy,Premium_Fitness,-6.1441313,106.815065,"Jl. Gajah Mada No.220, Glodok, Kec. Taman Sari, Kota Jakarta Barat, Daerah Khusus Ibukota Jakarta 11120, Indonesia","Jl. Gajah Mada No.220, Glodok, Kota Jakarta Barat",4.7,270,https://fithub.id/free-trial/v3/fit-hub-Gajah-Mada?source=GoogleMaps,0889-0556-9962,,"gym, point_of_interest, health, establishment",True,Central_Jakarta_Core,premium gym,True,2025-08-05T10:03:11.246003
ChIJmchhyy3zaS4RsldirEXR7fU,FIT HUB Pasar Minggu,Affluence_Proxy,Premium_Fitness,-6.252613699999999,106.8429316,"Jl. KH. Guru Amin No.05, RT.2/RW.7, Duren Tiga, Kec. Pancoran, Kota Jakarta Selatan, Daerah Khusus Ibukota Jakarta 12760, Indonesia","Jl. KH. Guru Amin No.05, RT.2/RW.7, Duren Tiga, Kota Jakarta Selatan",4.7,160,http://fithub.id/free-trial/v3/fit-hub-Pasar-Minggu?source=GoogleMaps,0822-1155-8145,,"gym, health, point_of_interest, establishment",True,Central_Jakarta_South,premium gym,True,2025-08-05T10:05:06.584003
ChIJZ9nESVrxaS4R6PsdqleVJqg,Wellfit Kemang Private Gym,Affluence_Proxy,Premium_Fitness,-6.2545531,106.8135347,"Wellspaces Kemang, Jl. Bangka XII No.4, Pela Mampang, Kec. Mampang Prpt., Kota Jakarta Selatan, Daerah Khusus Ibukota Jakarta 12720, Indonesia","Wellspaces Kemang, Jl. Bangka XII No.4, Pela Mampang, Kota Jakarta Selatan",4.7,25,http://wellfitindonesia.com/,0813-1839-1205,,"gym, health, point_of_interest, establishment",True,Central_Jakarta_South,celebrity fitness,True,2025-08-05T10:05:10.654743
ChIJ4d3hxTryaS4RZoL4OEI9LGU,PT Equinox Bahari Utama,Affluence_Proxy,Premium_Fitness,-6.2698867,106.8304395,"Globe Building Lantai 4, Jl. Wr. Jati Barat No.33 Kav. 31, Kalibata, Kec. Pancoran, Kota Jakarta Selatan, Daerah Khusus Ibukota Jakarta 12740, Indonesia","Globe Building Lantai 4, Jl. Wr. Jati Barat No.33 Kav. 31, Kota Jakarta Selatan",4.7,671,https://ebu.co.id/,(021) 79187007,,"travel_agency, point_of_interest, establishment",True,Central_Jakarta_South,equinox,True,2025-08-05T10:05:11.926234
ChIJo_sGoTzvaS4RFaS9sZEp1Nw,Osbond Gym Lite Cilandak,Affluence_Proxy,Premium_Fitness,-6.3011079,106.8141414,"Jl. Raya Cilandak KKO No.Rt10/05, Cilandak Tim., Ps. Minggu, Kota Jakarta Selatan, Daerah Khusus Ibukota Jakarta 12560, Indonesia","Jl. Raya Cilandak KKO No.Rt10/05, Cilandak Tim., Kota Jakarta Selatan",4.7,92,,0878-1771-7758,,"gym, health, point_of_interest, establishment",True,South_Jakarta_Kemang,premium gym,True,2025-08-05T10:06:41.829068
ChIJFTNZwPfzaS4Rv8XG7g1c-jc,FIT HUB Plaza Oleos,Affluence_Proxy,Premium_Fitness,-6.2982488,106.8296647,"Jl. TB Simatupang, RT.2/RW.1, Kebagusan, Ps. Minggu, Kota Jakarta Selatan, Daerah Khusus Ibukota Jakarta 12520, Indonesia","Plaza Oleos, Jl. TB Simatupang, RT.2/RW.1, Kebagusan, Kota Jakarta Selatan",4.7,179,https://fithub.id/free-trial/v3/fit-hub-Plaza-Oleos?source=GoogleMaps,0852-8378-8114,,"gym, health, point_of_interest, establishment",True,South_Jakarta_Kemang,premium gym,True,2025-08-05T10:06:41.998768
ChIJ_ZdbXJzvaS4Ry1FBLwSe9Ak,FTL Gym Cirendeu,Affluence_Proxy,Premium_Fitness,-6.306010000000001,106.7727498,"Jl. Raya Cirendeu No.43, Cireundeu, Kec. Ciputat Tim., Kota Tangerang Selatan, Banten 15419, Indonesia","Jl. Raya Cirendeu No.43, Cireundeu, Kota Tangerang Selatan",4.7,279,http://www.ftlgym.com/,0818-687-858,,"gym, health, point_of_interest, establishment",True,South_Jakarta_Kemang,premium gym,True,2025-08-05T10:06:42.332258
ChIJ5WKcLBXxaS4R5ORZ9S_V70g,FTL Gym SCBD,Affluence_Proxy,Premium_Fitness,-6.2262888,106.8071618,"Jl. Jend. Sudirman kav 52-53, RT.5/RW.3, Senayan, Kec. Kby. Baru, Kota Jakarta Selatan, Daerah Khusus Ibukota Jakarta 12190, Indonesia","Jl. Jend. Sudirman kav 52-53, RT.5/RW.3, Senayan, Kota Jakarta Selatan",4.6,92,https://ftlgym.com/,0818-687-858,,"gym, health, point_of_interest, establishment",True,Central_Jakarta_Core,premium gym,True,2025-08-05T10:03:02.173266
ChIJQ7lTuR_1aS4R4erxDS3b48k,Osbond Gym Gajah Mada Plaza Corbuzier Series,Affluence_Proxy,Premium_Fitness,-6.1608281,106.8183908,"Mall, Gajah Mada Plaza, Jl. Gajah Mada No.19 26 Lt. 3A, RT.2/RW.1, Petojo Utara, Kecamatan Gambir, Kota Jakarta Pusat, Daerah Khusus Ibukota Jakarta 10130, Indonesia","Mall, Gajah Mada Plaza, Jl. Gajah Mada No.19 26 Lt. 3A, RT.2/RW.1, Petojo Utara, Kota Jakarta Pusat",4.6,57,https://bit.ly/osbondwebsite,0877-7495-3908,,"gym, health, point_of_interest, establishment",True,Central_Jakarta_Core,premium gym,True,2025-08-05T10:03:05.571593
ChIJs0KCCIwdai4Rbgy-edyWvY8,PRIME FITNESS EMPORIUM,Affluence_Proxy,Premium_Fitness,-6.127360599999999,106.7912272,"Emporium Pluit Mall, Penjaringan, Kecamatan Penjaringan, Jkt Utara, Daerah Khusus Ibukota Jakarta, Indonesia","Emporium Pluit Mall, Penjaringan, Jkt Utara",4.6,96,,0882-1181-0287,,"gym, health, point_of_interest, establishment",True,Central_Jakarta_Core,premium gym,True,2025-08-05T10:03:06.774679
ChIJOZiG_uLzaS4RNONXGKw-x1o,FIAS GYM,Affluence_Proxy,Premium_Fitness,-6.2191981,106.8296721,"Jl. Denpasar No.7, Kuningan, Karet Kuningan, Kecamatan Setiabudi, Kota Jakarta Selatan, Daerah Khusus Ibukota Jakarta 12940, Indonesia","Jl. Denpasar No.7, Kuningan, Karet Kuningan, Kota Jakarta Selatan",4.6,20,https://www.instagram.com/fias_gym/?igshid=NzZlODBkYWE4Ng==&utm_source=qr,0815-1995-5913,,"gym, health, point_of_interest, establishment",True,Central_Jakarta_Core,premium gym,True,2025-08-05T10:03:06.940152
