place_id,name,category,sub_category,latitude,longitude,address,vicinity,rating,review_count,website,phone,price_level,types,is_operational,search_zone,search_keyword,is_open_now,timestamp
ChIJ-c2qI-H1aS4R5DfcItzTqjo,66KBET,Affluence_Proxy,Country_Club,-6.199542,106.8947011,"Jl. Nilam Raya, Rawamangun, Kec. Pulo Gadung, Kota Jakarta Timur, Daerah Khusus Ibukota Jakarta 13220, Indonesia","Jl. Nilam Raya, Rawamangun, Kota Jakarta Timur",,0,https://heylink.me/senju33.me,0821-8986-4220,,"point_of_interest, establishment",True,Central_Jakarta_Core,country club,True,2025-08-05T10:03:21.205849
ChIJB1GEfgD3aS4RrRujFAzkB-U,ROYAL CLUB,Affluence_Proxy,Country_Club,-6.1958535,106.8051326,"Jl. K.S. Tubun No.91, RT.1/RW.4, Petamburan, Kecamatan Tanah Abang, Kota Jakarta Pusat, Daerah Khusus Ibukota Jakarta 11410, Indonesia","Jl. K.S. Tubun No.91, RT.1/RW.4, Petamburan, Kota Jakarta Pusat",5,1,,,,"point_of_interest, establishment",True,Central_Jakarta_Core,country club,,2025-08-05T10:03:20.728038
ChIJJTwNKmT1aS4ROBRh9G050yM,HERBUD KAGAMA 4X4,Affluence_Proxy,Country_Club,-6.199471,106.8958535,"Jl. Gurame No.25, RT.4/RW.6, Jati, Kec. Pulo Gadung, Kota Jakarta Timur, Daerah Khusus Ibukota Jakarta 13220, Indonesia","Jl. Gurame No.25, RT.4/RW.6, Jati, Kota Jakarta Timur",5,2,,0852-1583-2223,,"point_of_interest, establishment",True,Central_Jakarta_Core,country club,True,2025-08-05T10:03:20.880424
ChIJnz80lw4dai4RBSvTT17vWwg,Pluit dalam kost,Affluence_Proxy,Country_Club,-6.1298297,106.8005469,"Jl. Pluit Dalam No.19, RT.14/RW.16, Penjaringan, Kecamatan Penjaringan, Jkt Utara, Daerah Khusus Ibukota Jakarta 14440, Indonesia","Jl. Pluit Dalam No.19, RT.14/RW.16, Penjaringan, Jkt Utara",5,3,,0812-9827-6120,,"point_of_interest, establishment",True,Central_Jakarta_Core,country club,True,2025-08-05T10:03:21.372262
ChIJE396LfrzaS4Rjl3_YRZuOAc,Elite Club,Affluence_Proxy,Country_Club,-6.2200944,106.8344989,"Jl. Epicentrum Utama Raya No.kavling c22, Karet Kuningan, Kecamatan Setiabudi, Kota Jakarta Selatan, Daerah Khusus Ibukota Jakarta 12940, Indonesia","Jl. Epicentrum Utama Raya No.kavling c22, Karet Kuningan, Kota Jakarta Selatan",4.5,804,https://eliteclub.co.id/,0822-9944-2230,,"gym, night_club, bar, health, point_of_interest, school, establishment",True,Central_Jakarta_Core,country club,True,2025-08-05T10:03:21.047612
ChIJIRV8lYTzaS4RAGZNvASXy_Y,PAGUYUBAN SINGA TEBET,Affluence_Proxy,Country_Club,-6.224925799999999,106.8581072,"1, Jl. Lapangan Ros Utara No.11, RT.1/RW.6, Bukit Duri, Kec. Tebet, Kota Jakarta Selatan, Daerah Khusus Ibukota Jakarta 12840, Indonesia","1, Jl. Lapangan Ros Utara No.11, RT.1/RW.6, Bukit Duri, Kota Jakarta Selatan",4.3,6,,0812-8517-9663,,"point_of_interest, establishment",True,Central_Jakarta_Core,country club,True,2025-08-05T10:03:20.573839
ChIJ97NKCC7xaS4RIJ_fonERwHY,Yayasan The British Int School,Affluence_Proxy,International_School,-6.223868599999999,106.7815224,"QQGJ+FJ2, Jl. Permata Intan, RT.14/RW.2, Bl U%2F1, Grogol Utara, Kec. Kby. Lama, Kota Jakarta Selatan, Daerah Khusus Ibukota Jakarta 12220, Indonesia","QQGJ+FJ2, Jl. Permata Intan, RT.14/RW.2, Bl U%2F1, Grogol Utara, Kota Jakarta Selatan",,0,,(021) 5304353,,"school, point_of_interest, establishment",False,Central_Jakarta_Core,british school,,2025-08-05T10:02:29.153077
ChIJT0vhNUXxaS4RZD0tFMmpDT8,British Council Indonesia Foundation - IELTS Test Centre,Affluence_Proxy,International_School,-6.2294728,106.805683,"Office 8 Building 9th Floor Sudirman Central Business District (SCBD) Lot 28 Jalan Jendral sudirman kav 52-53, Jl. Senopati Raya No.8B, RT.8/RW.3, Senayan, Kec. Kby. Baru, Kota Jakarta Selatan, Daerah Khusus Ibukota Jakarta 12190, Indonesia","Office 8 Building 9th Floor Sudirman Central Business District (SCBD) Lot 28 Jalan Jendral sudirman kav 52-53, Jl. Senopati Raya No.8B, RT.8/RW.3, Senayan, Kota Jakarta Selatan",4.3,360,https://www.britishcouncilfoundation.id/en/exam,(021) 30002480,,"point_of_interest, establishment",True,Central_Jakarta_Core,british school,True,2025-08-05T10:02:28.851493
ChIJVXRPkvfzaS4Rw-GXNloq_gM,The British Institute Kuningan,Affluence_Proxy,International_School,-6.210545,106.829596,"Jl. H. R. Rasuna Said No.Kav B, RT.5/RW.1, Kuningan, Karet Kuningan, Jakarta, Kota Jakarta Selatan, Daerah Khusus Ibukota Jakarta 12940, Indonesia","Jl. H. R. Rasuna Said No.Kav B, RT.5/RW.1, Kuningan, Karet Kuningan, Kota Jakarta Selatan",2.8,5,http://www.tbi.co.id/,(021) 30027988,,"point_of_interest, establishment",True,Central_Jakarta_Core,british school,True,2025-08-05T10:02:29.013818
ChIJB2vSFAz1aS4RXArYaDcovQw,BMW Astra Used Car Sunter,Affluence_Proxy,Luxury_Dealer,-6.1400583,106.8845909,"Jl. Gaya Motor Raya No.1, Sunter II, Kec. Tj. Priok, Jkt Utara, Daerah Khusus Ibukota Jakarta 14330, Indonesia","Jl. Gaya Motor Raya No.1, Sunter II, Jkt Utara",,0,https://bmw.astra.co.id/pre-owned/,(021) 65835226,,"point_of_interest, car_dealer, store, establishment",True,Central_Jakarta_Core,bmw dealer,True,2025-08-05T10:03:47.820096
ChIJk0b0YgD1aS4RVXqGxCqNjSs,BMW THAMRIN JAKARTA PUSAT,Affluence_Proxy,Luxury_Dealer,-6.1992496,106.8220163,"Jl. M.H. Thamrin No.10, Kb. Melati, Kecamatan Tanah Abang, Kota Jakarta Pusat, Daerah Khusus Ibukota Jakarta 10230, Indonesia","Thamrin Nine, Jl. M.H. Thamrin No.10, Kb. Melati, Kota Jakarta Pusat",,0,,0812-6636-6839,,"point_of_interest, car_dealer, store, establishment",True,Central_Jakarta_Core,bmw dealer,True,2025-08-05T10:03:47.968011
ChIJ0QpB97_1aS4Re_TDt1-fJsg,BMW Tunas Certified Pre-Owned Hayam Wuruk,Affluence_Proxy,Luxury_Dealer,-6.1587324,106.8190904,"Jl. Hayam Wuruk No.51, RT.7/RW.7, Maphar, Kec. Taman Sari, Maphar, Barat, Kota Jakarta Barat, Daerah Khusus Ibukota Jakarta 11160, Indonesia","Jl. Hayam Wuruk No.51, RT.7/RW.7, Maphar, Kec. Taman Sari, Kota Jakarta Barat",,0,https://www.bmw-tunas.co.id/bmw-used-cars/,(021) 6495550,,"point_of_interest, car_dealer, store, establishment",True,Central_Jakarta_Core,bmw dealer,True,2025-08-05T10:03:48.114219
ChIJRVqvegnzaS4R4B5L3FXfDFo,Bengkel Service dan kaki kaki Angkasa Motor,Affluence_Proxy,Luxury_Dealer,-6.2351661,106.8916786,"Ps. Mobil Kemayoran, Blk. N No.11 Pintu 8, Cipinang Muara, Kecamatan Jatinegara, Kota Jakarta Timur, Daerah Khusus Ibukota Jakarta 10610, Indonesia","Ps. Mobil Kemayoran, Blk. N No.11 Pintu 8, Cipinang Muara, Kota Jakarta Timur",,0,,0813-8504-9155,,"point_of_interest, car_dealer, store, establishment",True,Central_Jakarta_Core,bmw dealer,True,2025-08-05T10:03:48.744848
ChIJu6bjtqT1aS4RxXCDjJzsFkA,Euromobil Indonesia. PT,Affluence_Proxy,Luxury_Dealer,-6.1757371,106.8124767,"Jl. Tanah Abang II No.83 1, RT.1/RW.4, Petojo Sel., Kecamatan Gambir, Kota Jakarta Pusat, Daerah Khusus Ibukota Jakarta 10160, Indonesia","Jl. Tanah Abang II No.83 1, RT.1/RW.4, Petojo Sel., Kota Jakarta Pusat",5,16,,(021) 3854827,,"car_dealer, point_of_interest, store, establishment",True,Central_Jakarta_Core,luxury car dealer,True,2025-08-05T10:03:44.156121
ChIJtX4bTVsdai4Rr28vCqLP3Sw,Denza Haka Pluit,Affluence_Proxy,Luxury_Dealer,-6.125482,106.7971385,"Jl. Pluit Selatan Raya No.8A 2, Penjaringan, Kecamatan Penjaringan, Jkt Utara, Daerah Khusus Ibukota Jakarta 14440, Indonesia","Jl. Pluit Selatan Raya No.8A 2, Penjaringan, Jkt Utara",5,234,,0811-7777-7234,,"car_dealer, point_of_interest, store, establishment",True,Central_Jakarta_Core,luxury car dealer,True,2025-08-05T10:03:44.816666
ChIJK25UF2vzaS4RFn2U56CDSpg,MARKETING BMW TEBET,Affluence_Proxy,Luxury_Dealer,-6.2302889,106.846378,"Jl. Prof. DR. Soepomo No.174, Menteng Dalam, Kec. Tebet, Jakarta, Daerah Khusus Ibukota Jakarta 12870, Indonesia","Jl. Prof. DR. Soepomo No.174, Menteng Dalam, Jakarta",5,2,http://officialbmwcenter.com/,0856-6500-508,,"point_of_interest, car_dealer, store, establishment",True,Central_Jakarta_Core,bmw dealer,True,2025-08-05T10:03:47.355784
ChIJ7UpM3AhmTUARnKUZv0AcQ3c,BMW INDONESIA || BMW TEBET || BMW INDONESIA || DEALER BMW || HARGA BMW TEBET || BMW HAYAM WURUK,Affluence_Proxy,Luxury_Dealer,-6.2304892,106.8467546,"Jl dr prof Soepomo No.174, Menteng Dalam, Kec. Tebet, Kota Jakarta Selatan, Daerah Khusus Ibukota Jakarta 12870, Indonesia","Jl dr prof Soepomo No.174, Menteng Dalam, Kota Jakarta Selatan",5,1,http://bmw-official.co.id/,0812-8181-6521,,"point_of_interest, car_dealer, store, establishment",True,Central_Jakarta_Core,bmw dealer,True,2025-08-05T10:03:47.514813
ChIJb3VBRUqVaS4RUe9eAcNsBZk,KIKI BMW CONSULTANT,Affluence_Proxy,Luxury_Dealer,-6.1597264,106.7625877,"Jl. Panjang No.6, Kedaung Kali Angke, Kecamatan Cengkareng, Kota Jakarta Barat, Daerah Khusus Ibukota Jakarta 11710, Indonesia","Jl. Panjang No.6, Kedaung Kali Angke, Kota Jakarta Barat",5,44,https://www.yourbmwconsultant.id/,0819-9841-6651,,"point_of_interest, car_dealer, store, establishment",True,Central_Jakarta_Core,bmw dealer,True,2025-08-05T10:03:47.675554
ChIJqSE7htTzaS4RnC8WspFR41Y,Harga BMW Terbaik,Affluence_Proxy,Luxury_Dealer,-6.2208106,106.8501013,"Jl. Albarkah No.57B 8, RT.8/RW.5, Manggarai Sel., Kec. Tebet, Jakarta, Daerah Khusus Ibukota Jakarta 12860, Indonesia","Jl. Albarkah No.57B 8, RT.8/RW.5, Manggarai Sel., Jakarta",5,28,http://www.hargabmw.co.id/,0812-6827-9002,,"car_dealer, point_of_interest, store, establishment",True,Central_Jakarta_Core,bmw dealer,True,2025-08-05T10:03:48.443201
ChIJx3CRvi_1aS4R2Wg7GGvgkXs,Supreme Auto Gallery,Affluence_Proxy,Luxury_Dealer,-6.1484312,106.8887362,"Jl Yos Sudarso kav 87-88, Bursa Otomotif Sunter blok G 20, Sunter Jaya, Kec. Tj. Priok, Sunter, Daerah Khusus Ibukota Jakarta 14350, Indonesia","Jl Yos Sudarso kav 87-88, Bursa Otomotif Sunter blok G 20, Sunter",5,1,,0815-3600-0000,,"car_dealer, point_of_interest, store, establishment",True,Central_Jakarta_Core,bmw dealer,True,2025-08-05T10:03:48.598915
ChIJnxKGep3xaS4RaZvTDJsUubM,PORSMOTOR Porsche Specialist by PORSWERKS,Affluence_Proxy,Luxury_Dealer,-6.2194895,106.7604052,"Jl. Swadarma Raya No.33, Srengseng, Kec. Kembangan, Kota Jakarta Barat, Daerah Khusus Ibukota Jakarta 11630, Indonesia","Jl. Swadarma Raya No.33, Srengseng, Kota Jakarta Barat",5,315,https://porsmotor.id/,0819-0883-2229,,"car_repair, point_of_interest, establishment",True,Central_Jakarta_Core,porsche,True,2025-08-05T10:03:49.552088
ChIJhzWlv3_zaS4RBvG7Et9YvTM,PT. KANAKA AUTO PARTS,Affluence_Proxy,Luxury_Dealer,-6.2397503,106.8241498,"Gedung Menara Tendean (M-TEN), Lantai 17 Unit C, Jl. Kapten Tendean. 20C RT4/RW 3. Kel. Kuningan Barat, Kec.Mampang Prapatan, Jakarta Selatan, Kuningan Bar., Kec. Mampang Prpt., Jakarta, Daerah Khusus Ibukota Jakarta 12710, Indonesia","Gedung Menara Tendean (M-TEN), Lantai 17 Unit C, Jl. Kapten Tendean. 20C RT4/RW 3. Kel. Kuningan Barat, Kec.Mampang Prapatan, Jakarta Selatan, Jakarta",5,62,,0812-8781-6804,,"point_of_interest, establishment",True,Central_Jakarta_Core,porsche,True,2025-08-05T10:03:49.716952
ChIJ5RBMuvX2aS4RwKxzwAK54Is,"Wedding Car Rental, Luxury Car Rental Jakarta",Affluence_Proxy,Luxury_Dealer,-6.1746723,106.7865406,"Jl. Tanjung Duren Timur No.11 3, RT.3/RW.5, Tj. Duren Sel., Kec. Grogol petamburan, Kota Jakarta Barat, Daerah Khusus Ibukota Jakarta 11470, Indonesia","Jl. Tanjung Duren Timur No.11 3, RT.3/RW.5, Tj. Duren Sel., Kota Jakarta Barat",5,12,,0818-0777-4798,,"car_rental, point_of_interest, establishment",True,Central_Jakarta_Core,porsche,True,2025-08-05T10:03:50.049140
ChIJe-sYD_7xaS4RgxmlTpGdHYA,AutoWerkstatt VW und Porsche,Affluence_Proxy,Luxury_Dealer,-6.2453676,106.8157557,"Jl. Bangka Raya No.32, RT.2/RW.2, Pela Mampang, Kec. Mampang Prpt., Kota Jakarta Selatan, Daerah Khusus Ibukota Jakarta 12720, Indonesia","Jl. Bangka Raya No.32, RT.2/RW.2, Pela Mampang, Kota Jakarta Selatan",5,14,https://www.instagram.com/autowerkstatt.jkt/,0817-334-388,,"car_repair, point_of_interest, establishment",True,Central_Jakarta_Core,porsche,True,2025-08-05T10:03:50.210855
ChIJUYWxeGT1aS4RD2_ROiFmcxE,Lexus Menteng Gallery,Affluence_Proxy,Luxury_Dealer,-6.2016939,106.8460009,"Jl. Proklamasi No.35 Lantai 1, RT.11/RW.2, Pegangsaan, Kec. Menteng, Kota Jakarta Pusat, Daerah Khusus Ibukota Jakarta 10320, Indonesia","Jl. Proklamasi No.35 Lantai 1, RT.11/RW.2, Pegangsaan, Kota Jakarta Pusat",4.9,1429,https://www.lexus.co.id/,(021) 3901325,,"car_dealer, point_of_interest, store, establishment",True,Central_Jakarta_Core,luxury car dealer,True,2025-08-05T10:03:43.985161
ChIJV86fI9H1aS4R4-7u94ZabPY,Auto Luxury,Affluence_Proxy,Luxury_Dealer,-6.1742462,106.8944534,"Bella Terra Lifestyle Center Kelapa Gading, Klp. Gading Tim., Kec. Klp. Gading, Jkt Utara, Daerah Khusus Ibukota Jakarta 14240, Indonesia","Bella Terra Lifestyle Center Kelapa Gading, East Kelapa Gading, North Jakarta City",4.8,4,,0812-9015-8892,,"car_dealer, point_of_interest, store, establishment",True,Central_Jakarta_Core,luxury car dealer,True,2025-08-05T10:03:43.487565
ChIJYe0cJtb1aS4RG3FosbyyY00,The Djakarta Auto,Affluence_Proxy,Luxury_Dealer,-6.1695796,106.8181311,"Jl. Suryopranoto No.B/9 10, RT.1/RW.8, Petojo Sel., Kecamatan Gambir, Kota Jakarta Pusat, Daerah Khusus Ibukota Jakarta 10160, Indonesia","Jl. Suryopranoto No.B/9 10, RT.1/RW.8, South Petojo, Central Jakarta City",4.8,4,http://www.tda.co.id/,(021) 3811149,,"car_dealer, point_of_interest, store, establishment",True,Central_Jakarta_Core,luxury car dealer,True,2025-08-05T10:03:43.805772
ChIJMe-pDIr2aS4RbkpUK8rKgTE,BMW Tunas Tomang,Affluence_Proxy,Luxury_Dealer,-6.177598,106.7987653,"Jl. Tomang Raya No.19, RT.1/RW.1, Tomang, Kec. Grogol petamburan, Kota Jakarta Barat, Daerah Khusus Ibukota Jakarta 11440, Indonesia","Jl. Tomang Raya No.19, RT.1/RW.1, Tomang, Kota Jakarta Barat",4.8,482,https://www.bmw-tunas.co.id/,(021) 5633152,,"car_dealer, car_repair, point_of_interest, store, establishment",True,Central_Jakarta_Core,luxury car dealer,True,2025-08-05T10:03:44.981539
ChIJkUbSl5Qfai4RtUF2bvo58-w,Glory Perkasa Mobil,Affluence_Proxy,Luxury_Dealer,-6.1490459,106.8880463,"Bursa Otomotif Sunter (BOS) Blok B2 No. 23-25, Jalan Yos Sudarso Kav. 87-8, 8RT.1/RW.2, Koja, RT.10/RW.11, Sunter Jaya, Kec. Tj. Priok, Jkt Utara, Daerah Khusus Ibukota Jakarta 11520, Indonesia","Bursa Otomotif Sunter (BOS) Blok B2 No. 23-25, Jalan Yos Sudarso Kav. 87-8, 8RT.1/RW.2, Koja, RT.10/RW.11, Sunter Jaya, Jkt Utara",4.8,37,,(021) 29450704,,"car_dealer, point_of_interest, store, establishment",True,Central_Jakarta_Core,luxury car dealer,False,2025-08-05T10:03:45.488584
ChIJ7aVZB231aS4R6VSyvVTKAb4,BMW Jakarta Pusat,Affluence_Proxy,Luxury_Dealer,-6.1984574,106.8228774,"Jl. M.H. Thamrin No.Kav.8, RT.5/RW.1, Kb. Melati, Kecamatan Tanah Abang, Kota Jakarta Pusat, Daerah Khusus Ibukota Jakarta 10230, Indonesia","Jl. M.H. Thamrin No.Kav.8, RT.5/RW.1, Kb. Melati, Kota Jakarta Pusat",4.8,9,http://www.showroombmw.com/,0811-9151-800,,"point_of_interest, car_dealer, store, establishment",True,Central_Jakarta_Core,bmw dealer,True,2025-08-05T10:03:47.031797
ChIJbxewgSzzaS4Rhyqa5pJAMGQ,BMW Official Store,Affluence_Proxy,Luxury_Dealer,-6.2303314,106.8463702,"Jl. Prof. DR. Soepomo No.174, Menteng Dalam, Kec. Tebet, Kota Jakarta Selatan, Daerah Khusus Ibukota Jakarta 12810, Indonesia","Jl. Prof. DR. Soepomo No.174, Menteng Dalam, Kota Jakarta Selatan",4.8,25,http://www.bmwstore.id/,0822-4459-6129,,"point_of_interest, car_dealer, store, establishment",True,Central_Jakarta_Core,bmw dealer,True,2025-08-05T10:03:47.188984
ChIJtX3MMMX3aS4Rd7Sh_yCrHYc,AUTOFRESH Indonesia,Affluence_Proxy,Luxury_Dealer,-6.1730605,106.7597576,"Jl. Kedoya Pesing No.1, RT.9/RW.7, Kedoya Utara, Kec. Kb. Jeruk, Kota Jakarta Barat, Daerah Khusus Ibukota Jakarta 11520, Indonesia","Jl. Kedoya Pesing No.1, RT.9/RW.7, Kedoya Utara, Kota Jakarta Barat",4.8,5,https://autofreshid.com/,0819-3209-2426,,"store, point_of_interest, establishment",True,Central_Jakarta_Core,porsche,True,2025-08-05T10:03:51.198149
ChIJsSeQY0fxaS4RpM6TFXSBl4Y,P.A.D (Prestige Auto Detailer),Affluence_Proxy,Luxury_Dealer,-6.231890099999999,106.7945655,"Jl. Hang Lekir No.25 9, RT.9/RW.6, Gunung, Kec. Kby. Baru, Kota Jakarta Selatan, Daerah Khusus Ibukota Jakarta 12120, Indonesia","Jl. Hang Lekir No.25 9, RT.9/RW.6, Gunung, Kota Jakarta Selatan",4.7,105,http://www.prestigeautodetailer.com/,(021) 7243944,,"car_repair, point_of_interest, establishment",True,Central_Jakarta_Core,luxury car dealer,True,2025-08-05T10:03:44.318666
ChIJf0N_dd_1aS4Rr-p3GxeFtbo,BMW Tunas Hayam Wuruk,Affluence_Proxy,Luxury_Dealer,-6.1587022,106.8191852,"Jl. Hayam Wuruk No.51, RT.7/RW.7, Maphar, Kec. Taman Sari, Kota Jakarta Barat, Daerah Khusus Ibukota Jakarta 11160, Indonesia","Hayam Wuruk St No.51, RT.7/RW.7, Maphar, West Jakarta City",4.7,117,https://www.bmw-tunas.co.id/,(021) 6495550,,"car_dealer, point_of_interest, store, establishment",True,Central_Jakarta_Core,luxury car dealer,True,2025-08-05T10:03:45.142479
ChIJqbLL-g31aS4RDiQxCWl1_xE,BMW Performance Motors Retail.Next,Affluence_Proxy,Luxury_Dealer,-6.198462900000001,106.8228206,"Jl. M.H. Thamrin No.Kav. 8, RT.5/RW.1, Kb. Melati, Kecamatan Tanah Abang, Kota Jakarta Pusat, Daerah Khusus Ibukota Jakarta 10230, Indonesia","Jl. M.H. Thamrin No.Kav. 8, RT.5/RW.1, Kb. Melati, Kota Jakarta Pusat",4.7,84,https://bmw-performancemotors.co.id/,(021) 30121201,,"point_of_interest, car_dealer, store, establishment",True,Central_Jakarta_Core,bmw dealer,True,2025-08-05T10:03:46.865816
ChIJSa7F4xnxaS4RjDoGNv2j7XA,Porsche Centre Jakarta,Affluence_Proxy,Luxury_Dealer,-6.241446100000001,106.7820627,"Jl. Sultan Iskandar Muda No.51, Kby. Lama Utara, Kec. Kby. Lama, Kota Jakarta Selatan, Daerah Khusus Ibukota Jakarta 12240, Indonesia","Jl. Sultan Iskandar Muda No.51, Kby. Lama Utara, Kota Jakarta Selatan",4.7,525,https://dealer.porsche.com/id/jakarta,(021) 7258000,$$$$,"car_dealer, store, point_of_interest, establishment",True,Central_Jakarta_Core,porsche,True,2025-08-05T10:03:49.385954
ChIJExMAlZEdai4RoGfuJI8Ck1I,"Premiere autowerkz , pp performance",Affluence_Proxy,Luxury_Dealer,-6.1251627,106.787046,"Premiere Autowerkz, Pp Performance, Jl. Pluit Barat IIIA No.1 3, RT.16/RW.7, Pluit, Kecamatan Penjaringan, Jkt Utara, Daerah Khusus Ibukota Jakarta 14450, Indonesia","Premiere Autowerkz, Pp Performance, Jl. Pluit Barat IIIA No.1 3, RT.16/RW.7, Pluit, Jkt Utara",4.7,43,,0817-0008-072,,"point_of_interest, establishment",True,Central_Jakarta_Core,porsche,,2025-08-05T10:03:51.048092
ChIJuWI7zF31aS4RzdPuagXTGKM,Astra Peugeot Sunter,Affluence_Proxy,Luxury_Dealer,-6.1408223,106.8908795,"Jl. Yos Sudarso No.Kav 24, Sungai Bambu, Kec. Tj. Priok, Jkt Utara, Daerah Khusus Ibukota Jakarta 14330, Indonesia","Jl. Yos Sudarso No.Kav 24, Sungai Bambu, Jkt Utara",4.6,86,http://www.peugeot.co.id/,(021) 6512325,,"car_dealer, point_of_interest, store, establishment",True,Central_Jakarta_Core,luxury car dealer,True,2025-08-05T10:03:44.479415
ChIJX-WHuR33aS4Rq67bBc2EuBI,PT Trans Eurokars Indonesia,Affluence_Proxy,Luxury_Dealer,-6.191953199999999,106.7685029,"Jl. Panjang No.6, RT.11/RW.11, Kb. Jeruk, Kec. Kb. Jeruk, Kota Jakarta Barat, Daerah Khusus Ibukota Jakarta 11530, Indonesia","Jl. Panjang No.6, RT.11/RW.11, Kb. Jeruk, Kota Jakarta Barat",4.6,413,https://service.bmw.co.id/?dealer=BMWIERLTEB,(021) 5358000,,"point_of_interest, car_dealer, store, establishment",True,Central_Jakarta_Core,bmw dealer,True,2025-08-05T10:03:46.177026
ChIJN00w5mb1aS4Rwe7L8DSpmLM,BMW Astra Sunter,Affluence_Proxy,Luxury_Dealer,-6.140251399999999,106.8848365,"Jl. Gaya Motor Raya Sunter II No.1, Sungai Bambu, Kec. Tj. Priok, Jkt Utara, Daerah Khusus Ibukota Jakarta 14330, Indonesia","Jl. Gaya Motor Raya Sunter II No.1, Sungai Bambu, Jkt Utara",4.6,892,https://bmw.astra.co.id/,(021) 6505959,,"point_of_interest, car_dealer, store, establishment",True,Central_Jakarta_Core,bmw dealer,True,2025-08-05T10:03:46.342057
ChIJRaVgKpLzaS4RFKyBdLWg9kc,BMW Tunas Tebet,Affluence_Proxy,Luxury_Dealer,-6.230399999999999,106.846733,"Jl. Prof. DR. Soepomo No.174, Menteng Dalam, Kec. Tebet, Kota Jakarta Selatan, Daerah Khusus Ibukota Jakarta 12870, Indonesia","Jl. Prof. DR. Soepomo No.174, Menteng Dalam, Kota Jakarta Selatan",4.6,500,https://www.bmw-tunas.co.id/,(021) 8301805,,"car_repair, point_of_interest, car_dealer, store, establishment",True,Central_Jakarta_Core,bmw dealer,True,2025-08-05T10:03:46.499902
ChIJhZuDKELzaS4R3YPSVcPfDUw,AFJ Motorsport,Affluence_Proxy,Luxury_Dealer,-6.2135965,106.8949626,"Pondok Kopi, Jl. I Gusti Ngurah Rai Gg. Ciparai 3 No.4, RT.4/RW.5, Cipinang Muara, Kecamatan Jatinegara, Kota Jakarta Timur, Daerah Khusus Ibukota Jakarta 13420, Indonesia","Pondok Kopi, Jl. I Gusti Ngurah Rai Gg. Ciparai 3 No.4, RT.4/RW.5, Cipinang Muara, Kota Jakarta Timur",4.6,152,,0815-9400-072,,"car_repair, point_of_interest, establishment",True,Central_Jakarta_Core,porsche,True,2025-08-05T10:03:50.554403
ChIJoUY6sefxaS4RvwT3xBCguVE,Ferrari Showroom & Service (PT Eurokars Prima Utama),Affluence_Proxy,Luxury_Dealer,-6.201181699999999,106.8440848,"Jl. Proklamasi No.36A, Pegangsaan, Kec. Menteng, Kota Jakarta Pusat, Daerah Khusus Ibukota Jakarta 10320, Indonesia","Jl. Proklamasi No.36A, Pegangsaan, Kota Jakarta Pusat",4.6,183,http://www.jakarta.ferraridealers.com/,(021) 21243888,,"car_dealer, store, point_of_interest, establishment",True,Central_Jakarta_Core,porsche,True,2025-08-05T10:03:50.713768
ChIJ1W9y_zHxaS4RKnl_eWEh2wY,Maserati Indonesia,Affluence_Proxy,Luxury_Dealer,-6.241205099999999,106.7826188,"Jl. Sultan Iskandar Muda Arteri No.51 Level 4, Pondok Indah, Kec. Kby. Lama, Kota Jakarta Selatan, Daerah Khusus Ibukota Jakarta 12240, Indonesia","Jl. Sultan Iskandar Muda Arteri No.51 Level 4, Pondok Indah, Kota Jakarta Selatan",4.6,31,https://www.maserati.com/id/en/shopping-tools/dealer-locator,0812-2225-0920,,"car_dealer, store, point_of_interest, establishment",True,Central_Jakarta_Core,porsche,True,2025-08-05T10:03:50.886364
ChIJ_XnE0131aS4RfYR46EKzaV8,Bursa Otomotif Sunter,Affluence_Proxy,Luxury_Dealer,-6.1486,106.88833,"Bursa Otomotif Sunter Blok B2 No:20 Jakarta, Sunter Jaya, Kec. Tj. Priok, Jkt Utara, Daerah Khusus Ibukota Jakarta 14230, Indonesia",Bursa Otomotif Sunter Blok B2 No:20 Jakarta,4.5,1159,,(021) 65836258,,"car_dealer, point_of_interest, store, establishment",True,Central_Jakarta_Core,luxury car dealer,True,2025-08-05T10:03:44.645949
ChIJyfU15xbxaS4RaGpPjWCnrOA,Mazda Simprug,Affluence_Proxy,Luxury_Dealer,-6.2335566,106.7863313,"Jl. Teuku Nyak Arief No.9D, Grogol Sel., Kec. Kby. Lama, Kota Jakarta Selatan, Daerah Khusus Ibukota Jakarta 12220, Indonesia","Mazda Promo Jkt, Jl. Teuku Nyak Arief No.9D, Grogol Sel., Kota Jakarta Selatan",4.5,221,http://www.mazda.co.id/,(021) 7269000,,"car_dealer, point_of_interest, store, establishment",True,Central_Jakarta_Core,luxury car dealer,True,2025-08-05T10:03:45.317109
ChIJkZwbB5Udai4RwwzZtyDWH-Y,BMW Astra Pluit,Affluence_Proxy,Luxury_Dealer,-6.125401999999999,106.798087,"Jl. Pluit Selatan Raya No.8A, RT.3/RW.8, Pluit, Kecamatan Penjaringan, Jkt Utara, Daerah Khusus Ibukota Jakarta 14450, Indonesia","Jl. Pluit Selatan Raya No.8A, RT.3/RW.8, Pluit, Jkt Utara",4.5,226,,(021) 66605599,,"point_of_interest, car_dealer, store, establishment",True,Central_Jakarta_Core,bmw dealer,True,2025-08-05T10:03:46.667184
ChIJHcO5qIz7aS4RR8xVp4wWOlg,BMW Experience,Affluence_Proxy,Luxury_Dealer,-6.1586836,106.8193587,"Jl. Hayam Wuruk No.51, Maphar, Kec. Taman Sari, Kota Jakarta Barat, Daerah Khusus Ibukota Jakarta 11160, Indonesia","Hayam Wuruk St No.51, Maphar, West Jakarta City",4.5,230,,0821-2526-2792,$$,"point_of_interest, car_dealer, store, establishment",True,Central_Jakarta_Core,bmw dealer,True,2025-08-05T10:03:48.279954
ChIJxxF2gBfxaS4RCyg0Tkjk3g8,Eurokars Group Indonesia,Affluence_Proxy,Luxury_Dealer,-6.241259899999999,106.782617,"Jl. Sultan Iskandar Muda No.51, Kby. Lama Utara, Kec. Kby. Lama, Kota Jakarta Selatan, Daerah Khusus Ibukota Jakarta 12240, Indonesia","Jl. Sultan Iskandar Muda No.51, Kby. Lama Utara, Kota Jakarta Selatan",4.5,85,https://www.eurokarsgroup.com/home-id/,(021) 7239333,,"point_of_interest, establishment",True,Central_Jakarta_Core,porsche,True,2025-08-05T10:03:50.384683
ChIJMxjHnPH1aS4Rj0hDMXpLtqA,Bafar Cars,Affluence_Proxy,Luxury_Dealer,-6.152304099999999,106.8465101,"Ps. Mobil Kemayoran, Blk. Y No.1, Pademangan Tim., Kec. Pademangan, Jkt Utara, Daerah Khusus Ibukota Jakarta 14410, Indonesia","Ps. Mobil Kemayoran, Blk. Y No.1, Pademangan Tim., Jkt Utara",4.4,62,https://instagram.com/bafarcars?igshid=k4ude9kfs1tr,0811-1711-177,,"car_dealer, point_of_interest, store, establishment",True,Central_Jakarta_Core,luxury car dealer,True,2025-08-05T10:03:43.646551
ChIJw3MSmN71aS4RVCYeBSTxxH0,MJ Motor Airsupension MERCY BMW AUDI VW BENTLEY PORSCHE,Affluence_Proxy,Luxury_Dealer,-6.1616324,106.8214696,"wiryo pranoto, Jl. Sukarjo Wiryopranoto Batu Ceper VII, RT.8/RW.1, Kb. Klp., Kecamatan Gambir, Kota Jakarta Pusat, Daerah Khusus Ibukota Jakarta 10120, Indonesia","wiryo pranoto, Jl. Sukarjo Wiryopranoto Batu Ceper VII, RT.8/RW.1, Kb. Klp., Kota Jakarta Pusat",4.4,83,,0813-1542-4499,,"car_repair, store, point_of_interest, establishment",True,Central_Jakarta_Core,porsche,True,2025-08-05T10:03:49.880649
ChIJAXWYKQD3aS4RgbVwBf0T6zA,Teddy Equinox,Affluence_Proxy,Premium_Fitness,-6.1597279,106.8023681,"Gg. Gerindo 4 No.2, RT.7/RW.4, Duri Sel., Kec. Tambora, Kota Jakarta Barat, Daerah Khusus Ibukota Jakarta 11270, Indonesia","Gg. Gerindo 4 No.2, RT.7/RW.4, Duri Sel., Kota Jakarta Barat",,0,,,,"point_of_interest, establishment",True,Central_Jakarta_Core,equinox,,2025-08-05T10:03:19.333456
ChIJz9G3IEnxaS4RDFq0jWVhQ3A,EGO,Affluence_Proxy,Premium_Fitness,-6.2256942,106.7989969,"Jl. Asia Afrika No.8, RT.1/RW.3, Gelora, Kecamatan Tanah Abang, Kota Jakarta Pusat, Daerah Khusus Ibukota Jakarta 10270, Indonesia","Plaza Senayan Mall, Plaza Senayan, Jl. Asia Afrika No.8, RT.1/RW.3, Gelora, Central Jakarta City",,0,,(021) 5725559,,"restaurant, point_of_interest, food, establishment",True,Central_Jakarta_Core,equinox,False,2025-08-05T10:03:19.809090
ChIJ1WBtGgD1aS4Rd5ChAMIJN04,20FIT Kuningan,Affluence_Proxy,Premium_Fitness,-6.2073261,106.8288667,"Jl. Setia Budi Utara Raya No.5, RT.5/RW.1, Kuningan, Karet Kuningan, Kecamatan Setiabudi, Kota Jakarta Selatan, Daerah Khusus Ibukota Jakarta 12940, Indonesia","Jl. Setia Budi Utara Raya No.5, RT.5/RW.1, Kuningan, Karet Kuningan, Kota Jakarta Selatan",5,64,https://20fit.id/,0877-7671-2304,,"gym, health, point_of_interest, establishment",True,Central_Jakarta_Core,premium gym,True,2025-08-05T10:03:03.227595
ChIJ0eHfQQD1aS4R4N6-E-0Jn0w,Stellar Powerhouse Pulomas,Affluence_Proxy,Premium_Fitness,-6.1740013,106.8815094,"Jl. Pulo Mas Barat IV No.97, Kayu Putih, Kec. Pulo Gadung, Kota Jakarta Timur, Daerah Khusus Ibukota Jakarta 13210, Indonesia","Jl. Pulo Mas Barat IV No.97, Kayu Putih, Kota Jakarta Timur",5,15,http://gostellar.id/,0822-7766-4141,,"gym, health, point_of_interest, establishment",True,Central_Jakarta_Core,premium gym,True,2025-08-05T10:03:03.894307
ChIJa54sy23xaS4RA9qMili2Jsg,GAON Pilates Club | Gunawarman,Affluence_Proxy,Premium_Fitness,-6.2358771,106.8077869,"Third Floor, Jl. Gunawarman No.41, Rw. Bar., Kec. Kby. Baru, Kota Jakarta Selatan, Daerah Khusus Ibukota Jakarta 12180, Indonesia","Third Floor, Jl. Gunawarman No.41, Kota Jakarta Selatan",5,19,https://gaonpilatesclub.id/,0818-1875-8484,,"gym, health, point_of_interest, establishment",True,Central_Jakarta_Core,premium gym,,2025-08-05T10:03:04.542391
ChIJRadaIizxaS4RFwzTxAH-6Qc,Precision Gym,Affluence_Proxy,Premium_Fitness,-6.2364621,106.7980657,"Jl. Sisingamangaraja No.21, RT.1/RW.4, Gunung, Kec. Kby. Baru, Kota Jakarta Selatan, Daerah Khusus Ibukota Jakarta 12120, Indonesia","Jl. Sisingamangaraja No.21, RT.1/RW.4, Gunung, Kota Jakarta Selatan",5,22,https://precisiongym.id/,0811-1010-9689,,"gym, health, point_of_interest, establishment",True,Central_Jakarta_Core,premium gym,True,2025-08-05T10:03:05.198627
ChIJNUbdZ7zxaS4R51sOnt_alkw,Level Studio - Jakarta,Affluence_Proxy,Premium_Fitness,-6.229244599999999,106.8068465,"ASHTA at District 8 level UG, Unit 09-11, Jl. Jenderal Sudirman, Kav 52.53 SCBD Lot 28, RT.8/RW.3, Senayan, Kec. Kby. Baru, Kota Jakarta Selatan, Daerah Khusus Ibukota Jakarta 12190, Indonesia","ASHTA at District 8 level UG, Unit 09-11, Jl. Jenderal Sudirman, Kav 52.53 SCBD Lot 28, RT.8/RW.3, Senayan, Kota Jakarta Selatan",5,476,https://levelstudio.id/,0811-1953-835,,"gym, health, point_of_interest, establishment",True,Central_Jakarta_Core,premium gym,True,2025-08-05T10:03:05.936662
ChIJlQfk_3cdai4RnN_jrDbzbBs,Sun Yoga PIK Studio,Affluence_Proxy,Premium_Fitness,-6.116552299999999,106.7579942,"Ruko Arcade, Jl. Pantai Indah Utara 2 Blok 3 ME & 3 MF, RT.2/RW.7, Kapuk Muara, Kecamatan Penjaringan, Jkt Utara, Daerah Khusus Ibukota Jakarta 14460, Indonesia","Ruko Arcade, Jl. Pantai Indah Utara 2 Blok 3 ME & 3 MF, RT.2/RW.7, Kapuk Muara, Jkt Utara",5,20,http://sunyoga.id/,0813-1826-8168,,"gym, health, point_of_interest, establishment",True,Central_Jakarta_Core,premium gym,True,2025-08-05T10:03:06.614406
ChIJGxE4fUX3aS4RNNq50lS9CX0,GROUND Private Training,Affluence_Proxy,Premium_Fitness,-6.1792719,106.7571214,"Taman kedoya indah RB/8C, RT.9/RW.5, Kedoya Sel., Jakarta, Kota Jakarta Barat, Daerah Khusus Ibukota Jakarta 11520, Indonesia","Taman kedoya indah RB/8C, RT.9/RW.5",5,8,,0852-2255-7765,,"gym, health, point_of_interest, establishment",True,Central_Jakarta_Core,premium gym,True,2025-08-05T10:03:07.438920
ChIJJ1AIhQbxaS4R7QdDCOHI6Nc,Reload Gym Senopati,Affluence_Proxy,Premium_Fitness,-6.2356848,106.8136986,"LDS Building, 2nd Floor, Jl. Suryo No.34, RT.10/RW.3, Rw. Bar., Kec. Kby. Baru, Jakarta, Daerah Khusus Ibukota Jakarta 12130, Indonesia","LDS Building, 2nd Floor, Jl. Suryo No.34, RT.10/RW.3, Jakarta",5,65,https://reloadgym.com/,0812-8254-1931,,"gym, health, point_of_interest, establishment",True,Central_Jakarta_Core,premium gym,True,2025-08-05T10:03:07.605510
ChIJ1XDbzVn3aS4Rxn31f9Tafc8,Griya Gym Fitness,Affluence_Proxy,Premium_Fitness,-6.142648899999999,106.779286,"Jl. Gusti Permata 4 No.27 Blok H, Pejagalan, Kecamatan Penjaringan, Jkt Utara, Daerah Khusus Ibukota Jakarta 14450, Indonesia","Jl. Gusti Permata 4 No.27 Blok H, Pejagalan, Jkt Utara",5,42,,0822-4925-2665,,"gym, health, point_of_interest, establishment",True,Central_Jakarta_Core,premium gym,True,2025-08-05T10:03:07.921535
ChIJecVpmMXzaS4Ruk63ymcwoXY,K Fitness Jatinegara,Affluence_Proxy,Premium_Fitness,-6.219306,106.8659592,"Jl. Jatinegara Barat 1 No.21-22, Bali Mester, Kecamatan Jatinegara, Jakarta, Daerah Khusus Ibukota Jakarta 13310, Indonesia","Jl. Jatinegara Barat 1 No.21-22, Bali Mester, Jakarta",5,109,https://kfitness.id/,0851-7335-0052,,"gym, point_of_interest, health, establishment",True,Central_Jakarta_Core,premium gym,True,2025-08-05T10:03:09.091445
ChIJX5TfJ-X1aS4RKBZBG6l-HiI,Musclecamp Gym,Affluence_Proxy,Premium_Fitness,-6.171988499999999,106.8538733,"Jalan Timah.23, Jl. Timah No.23, RT.6/RW.2, Harapan Mulya, Kec. Kemayoran, Kota Jakarta Pusat, Daerah Khusus Ibukota Jakarta 10640, Indonesia","Jalan Timah.23, Jl. Timah No.23, RT.6/RW.2, Harapan Mulya, Kota Jakarta Pusat",5,757,,0821-2212-6287,,"gym, point_of_interest, health, establishment",True,Central_Jakarta_Core,celebrity fitness,True,2025-08-05T10:03:17.131395
ChIJoS3RW1TxaS4Rt5AygfuX-PA,"Equnix Business Solutions, PT",Affluence_Proxy,Premium_Fitness,-6.1709786,106.8097572,"Jl. Kyai Caringin No.12C, Cideng, Kecamatan Gambir, Jakarta, Daerah Khusus Ibukota Jakarta 10150, Indonesia","Jl. Kyai Caringin No.12C, Cideng, Jakarta",5,22,https://equnix.asia/,0811-1188-812,,"point_of_interest, establishment",True,Central_Jakarta_Core,equinox,True,2025-08-05T10:03:19.502229
ChIJCbgGUEL3aS4R6MYjY-7cIyI,FITX GYM Grogol,Affluence_Proxy,Premium_Fitness,-6.1649522,106.7832263,"Jl. Daan Mogot No.50, Jelambar, Kec. Grogol petamburan, Jakarta, Daerah Khusus Ibukota Jakarta 11460, Indonesia","Daan Mogot Rd No.50, Jelambar, Jakarta",4.9,272,https://www.fitxgym.id/,0811-8802-1085,,"gym, health, point_of_interest, establishment",True,Central_Jakarta_Core,premium gym,True,2025-08-05T10:03:02.873317
ChIJMxu5AF31aS4R_ttN6Xx2Kms,BFT THAMRIN,Affluence_Proxy,Premium_Fitness,-6.1992838,106.8222607,"Chubb Square, Thamrin Nine, Jl. M.H. Thamrin No.8-9 Lantai 7, Kb. Melati, Kecamatan Tanah Abang, Kota Jakarta Pusat, Daerah Khusus Ibukota Jakarta 10230, Indonesia","Chubb Square, Thamrin Nine, Jl. M.H. Thamrin No.8-9 Lantai 7, Kb. Melati, Kota Jakarta Pusat",4.9,71,https://www.bodyfittraining.com/,0852-1117-5511,,"gym, health, point_of_interest, establishment",True,Central_Jakarta_Core,premium gym,True,2025-08-05T10:03:03.389913
ChIJCVrnPgD1aS4RjMjKY5lwSqE,AbsoluteFit Menteng,Affluence_Proxy,Premium_Fitness,-6.202662,106.849888,"Jl. Proklamasi No.84, RT.1/RW.4, Pegangsaan, Kec. Menteng, Kota Jakarta Pusat, Daerah Khusus Ibukota Jakarta 10320, Indonesia","Jl. Proklamasi No.84, RT.1/RW.4, Pegangsaan, Kota Jakarta Pusat",4.9,555,https://www.instagram.com/absolutefit2play.menteng,0811-1452-556,,"gym, health, point_of_interest, establishment",True,Central_Jakarta_Core,premium gym,True,2025-08-05T10:03:03.724706
ChIJy-FuBsPxaS4RUumf-7Xgqhw,Forte Pilates,Affluence_Proxy,Premium_Fitness,-6.2314269,106.8091729,"Jl. Senopati No.66 Floor 3, RT.8/RW.3, Selong, Kec. Kby. Baru, Kota Jakarta Selatan, Daerah Khusus Ibukota Jakarta 12190, Indonesia","Jl. Senopati No.66 Floor 3, RT.8/RW.3, Selong, South Jakarta City",4.9,97,http://fortepilates.co/,0812-8333-6283,,"gym, health, point_of_interest, establishment",True,Central_Jakarta_Core,premium gym,True,2025-08-05T10:03:04.380508
ChIJV3L3R7T1aS4R_afJPVPqlss,Human Balance,Affluence_Proxy,Premium_Fitness,-6.1456336,106.8963939,"Ruko Gading Kirana Jl. Boulevard Barat A6B No.30-31, Kel, RT.18/RW.8, Klp. Gading Bar., Kec. Klp. Gading, Jkt Utara, Daerah Khusus Ibukota Jakarta 14240, Indonesia","Ruko Gading Kirana Jl. Boulevard Barat A6B No.30-31, Kel, RT.18/RW.8, Klp. Gading Bar., Jkt Utara",4.9,78,https://reps-id.com/human-balance-gym-ala-korea-resmi-dibuka-di-kelapa-gading/,0812-9655-7278,,"gym, health, point_of_interest, establishment",True,Central_Jakarta_Core,premium gym,True,2025-08-05T10:03:05.041429
ChIJk1RNxMX1aS4RbECe1EO60Ck,Oxylone Fitness | Gym Matraman,Affluence_Proxy,Premium_Fitness,-6.2013839,106.855476,"Jl. Matraman Raya No.30, RT.2/RW.1, Kb. Manggis, Kec. Matraman, Jakarta, Daerah Khusus Ibukota Jakarta 13150, Indonesia","Jl. Matraman Raya No.30, RT.2/RW.1, Kb. Manggis, Jakarta",4.9,343,https://www.instagram.com/oxylone.fitness/?hl=en,0877-7811-0049,,"gym, health, point_of_interest, establishment",True,Central_Jakarta_Core,premium gym,True,2025-08-05T10:03:05.762629
ChIJaRvkyXv3aS4Ro4DWlqh2uOM,Limitless Fitness,Affluence_Proxy,Premium_Fitness,-6.1695082,106.7866445,"Jl. Universitas Tarumanagara Kampus II Jl. Tanjung Duren Raya, Tj. Duren Utara, Kec. Grogol petamburan, Kota Jakarta Barat, Daerah Khusus Ibukota Jakarta 11470, Indonesia","Parking lot, Jl. Universitas Tarumanagara Kampus II Jl. Tanjung Duren Raya, North Tanjung Duren, West Jakarta City",4.9,306,http://www.limitlessfitness.id/,0896-5480-8887,,"gym, health, point_of_interest, establishment",True,Central_Jakarta_Core,premium gym,True,2025-08-05T10:03:06.278692
ChIJewAAQAH0aS4RFIu0oxfKTHw,Empire Fit Club,Affluence_Proxy,Premium_Fitness,-6.2182697,106.803994,"Gelora Bung Karno Main Stadium Zone 7, Jl. Gerbang Pemuda, RT.1/RW.3, Gelora, Kecamatan Tanah Abang, Kota Jakarta Pusat, Daerah Khusus Ibukota Jakarta 10270, Indonesia","Gelora Bung Karno Main Stadium Zone 7, Jl. Gerbang Pemuda, RT.1/RW.3, Gelora, Kota Jakarta Pusat",4.9,413,,0811-8248-882,,"gym, point_of_interest, health, establishment",True,Central_Jakarta_Core,premium gym,True,2025-08-05T10:03:08.422775
ChIJUz4Ub-DxaS4Ry0FlurBXRtQ,Hustle Mahakam,Affluence_Proxy,Premium_Fitness,-6.243708,106.796366,"Jl. Mahakam No.28, Kramat Pela, Kec. Kby. Baru, Kota Jakarta Selatan, Daerah Khusus Ibukota Jakarta 12130, Indonesia","Jl. Mahakam No.28, Kramat Pela, Kota Jakarta Selatan",4.9,55,https://www.hustle.co.id/,0812-7818-0884,,"cafe, gym, food, point_of_interest, health, establishment",True,Central_Jakarta_Core,premium gym,True,2025-08-05T10:03:09.254900
ChIJqbT2Ai71aS4R9a67ex3UkWw,Hidden Gym Fitness Centre,Affluence_Proxy,Premium_Fitness,-6.203719,106.8678787,"Jl. Cengkir No.9 10, RT.10/RW.12, Utan Kayu Sel., Kec. Matraman, Kota Jakarta Timur, Daerah Khusus Ibukota Jakarta 13120, Indonesia","Jl. Cengkir No.9 10, RT.10/RW.12, Utan Kayu Sel., Kota Jakarta Timur",4.9,35,,,,"gym, point_of_interest, health, establishment",True,Central_Jakarta_Core,premium gym,True,2025-08-05T10:03:09.915713
ChIJH0SssSf1aS4R90qLqDfz1A4,Motion Pilates Rawamangun,Affluence_Proxy,Premium_Fitness,-6.1961423,106.891457,"Jl. Paus No.91, RT.1/RW.8, Jati, Kec. Pulo Gadung, Kota Jakarta Timur, Daerah Khusus Ibukota Jakarta 13220, Indonesia","Jl. Paus No.91, RT.1/RW.8, Jati, Kota Jakarta Timur",4.8,13,,0822-6103-9002,,"gym, health, point_of_interest, establishment",True,Central_Jakarta_Core,premium gym,True,2025-08-05T10:03:02.368083
ChIJCUFGtRz3aS4RWmFvFAEbyhU,Playfield Premium Club,Affluence_Proxy,Premium_Fitness,-6.2053657,106.7570645,"Jl. K.H. Nasir No.40, RT.1/RW.5, Srengseng, Kec. Kembangan, Kota Jakarta Barat, Daerah Khusus Ibukota Jakarta 11630, Indonesia","Jl. K.H. Nasir No.40, RT.1/RW.5, Srengseng, Kota Jakarta Barat",4.8,45,https://instagram.com/playfield.premiumclub?igshid=MmIzYWVlNDQ5Yg==,0818-998-158,,"night_club, bar, gym, spa, health, point_of_interest, establishment",True,Central_Jakarta_Core,premium gym,True,2025-08-05T10:03:02.537324
ChIJDeZg84PxaS4RsjZSfJw2_qk,FIT HUB ITC Permata Hijau,Affluence_Proxy,Premium_Fitness,-6.221330099999999,106.7840101,"Grand Itc Permata Hijau, Jl. Arteri Permata Hijau No.11 Lantai Lower Ground, RT.11/RW.10, Grogol Utara, Kec. Kby. Lama, Kota Jakarta Selatan, Daerah Khusus Ibukota Jakarta 12210, Indonesia","Grand Itc Permata Hijau, Ruko ITC Permata Hijau, Jl. Arteri Permata Hijau No.11 Lantai Lower Ground, RT.11/RW.10, Grogol Utara, Kota Jakarta Selatan",4.8,160,https://fithub.id/free-trial/v3/fit-hub-itc-permata-hijau?source=GoogleMaps,0852-1309-8976,,"gym, point_of_interest, health, establishment",True,Central_Jakarta_Core,premium gym,True,2025-08-05T10:03:08.759547
ChIJD6kPXGj1aS4RNyq8m-lLVwQ,FIT HUB Maspion Plaza,Affluence_Proxy,Premium_Fitness,-6.1414114,106.8338526,"Jl. Gn. Sahari No.Kav.18, Pademangan Bar., Kec. Pademangan, Jkt Utara, Daerah Khusus Ibukota Jakarta 14420, Indonesia","Maspion Plaza, Jl. Gn. Sahari No.Kav.18, West Pademangan, North Jakarta City",4.8,200,https://fithub.id/free-trial/v3/fit-hub-maspion-plaza/?source=Google%20Maps,0812-8333-3158,,"gym, point_of_interest, health, establishment",True,Central_Jakarta_Core,premium gym,True,2025-08-05T10:03:11.082737
ChIJq-7rjRX1aS4R-QJonBkz-i0,AWR FITNESS INDONESIA,Affluence_Proxy,Premium_Fitness,-6.1934309,106.8933216,"Jl. Pemuda No.292, RT.3/RW.1, Jati, Kec. Pulo Gadung, Kota Jakarta Timur, Daerah Khusus Ibukota Jakarta 13220, Indonesia","Jl. Pemuda No.292, RT.3/RW.1, Jati, Kota Jakarta Timur",4.8,143,,0817-9229-292,,"gym, point_of_interest, health, establishment",True,Central_Jakarta_Core,celebrity fitness,True,2025-08-05T10:03:16.254795
ChIJ4W6e5LYBai4RBzBUyZrIQUM,TRAINSTATION STUDIO,Affluence_Proxy,Premium_Fitness,-6.2339414,106.8130293,"First Floor, Jl. Suryo No.5 3, RT.3/RW.6, Rw. Bar., Kec. Kby. Baru, Kota Jakarta Selatan, Daerah Khusus Ibukota Jakarta 12180, Indonesia","First Floor, Jl. Suryo No.5 3, RT.3/RW.6, Rw. Bar., Kota Jakarta Selatan",4.8,61,,0821-1227-7788,,"gym, point_of_interest, health, establishment",True,Central_Jakarta_Core,celebrity fitness,True,2025-08-05T10:03:17.296311
ChIJpU7yHyX1aS4R8UVl-pOpZko,FIT HUB Rawamangun,Affluence_Proxy,Premium_Fitness,-6.193997899999999,106.8949582,"Jl. Sunan Drajad No.39 D, RT.1/RW.8, Jati, Kec. Pulo Gadung, Kota Jakarta Timur, Daerah Khusus Ibukota Jakarta 13220, Indonesia","Jl. Sunan Drajad No.39 D, RT.1/RW.8, Jati, Kota Jakarta Timur",4.7,608,https://fithub.id/free-trial/v3/fit-hub-rawamangun/?source=Google%20Maps,0857-7217-3969,,"gym, point_of_interest, health, establishment",True,Central_Jakarta_Core,premium gym,True,2025-08-05T10:03:10.090063
ChIJ_0UYpOTzaS4RR21ojEwQZg0,6221 Fitness - Jakarta,Affluence_Proxy,Premium_Fitness,-6.2275123,106.8245762,"Bellagio Boutique Mall, Lantai UG.15, Jl. Mega Kuningan Barat No.3 Kav. E4, RT.5/RW.2, Kuningan, Kuningan Tim., Kecamatan Setiabudi, Jakarta, Daerah Khusus Ibukota Jakarta 12950, Indonesia","Bellagio Boutique Mall, Lantai UG.15, Jl. Mega Kuningan Barat No.3 Kav. E4, RT.5/RW.2, Kuningan Tim., Jakarta",4.7,84,https://www.instagram.com/6221fitness/,0811-1696-221,,"gym, point_of_interest, health, establishment",True,Central_Jakarta_Core,premium gym,True,2025-08-05T10:03:10.586212
ChIJA2hl7a33aS4RAFWUBkJ3icc,FIT HUB Gajah Mada,Affluence_Proxy,Premium_Fitness,-6.1441313,106.815065,"Jl. Gajah Mada No.220, Glodok, Kec. Taman Sari, Kota Jakarta Barat, Daerah Khusus Ibukota Jakarta 11120, Indonesia","Jl. Gajah Mada No.220, Glodok, Kota Jakarta Barat",4.7,270,https://fithub.id/free-trial/v3/fit-hub-Gajah-Mada?source=GoogleMaps,0889-0556-9962,,"gym, point_of_interest, health, establishment",True,Central_Jakarta_Core,premium gym,True,2025-08-05T10:03:11.246003
ChIJ5WKcLBXxaS4R5ORZ9S_V70g,FTL Gym SCBD,Affluence_Proxy,Premium_Fitness,-6.2262888,106.8071618,"Jl. Jend. Sudirman kav 52-53, RT.5/RW.3, Senayan, Kec. Kby. Baru, Kota Jakarta Selatan, Daerah Khusus Ibukota Jakarta 12190, Indonesia","Jl. Jend. Sudirman kav 52-53, RT.5/RW.3, Senayan, Kota Jakarta Selatan",4.6,92,https://ftlgym.com/,0818-687-858,,"gym, health, point_of_interest, establishment",True,Central_Jakarta_Core,premium gym,True,2025-08-05T10:03:02.173266
ChIJQ7lTuR_1aS4R4erxDS3b48k,Osbond Gym Gajah Mada Plaza Corbuzier Series,Affluence_Proxy,Premium_Fitness,-6.1608281,106.8183908,"Mall, Gajah Mada Plaza, Jl. Gajah Mada No.19 26 Lt. 3A, RT.2/RW.1, Petojo Utara, Kecamatan Gambir, Kota Jakarta Pusat, Daerah Khusus Ibukota Jakarta 10130, Indonesia","Mall, Gajah Mada Plaza, Jl. Gajah Mada No.19 26 Lt. 3A, RT.2/RW.1, Petojo Utara, Kota Jakarta Pusat",4.6,57,https://bit.ly/osbondwebsite,0877-7495-3908,,"gym, health, point_of_interest, establishment",True,Central_Jakarta_Core,premium gym,True,2025-08-05T10:03:05.571593
ChIJs0KCCIwdai4Rbgy-edyWvY8,PRIME FITNESS EMPORIUM,Affluence_Proxy,Premium_Fitness,-6.127360599999999,106.7912272,"Emporium Pluit Mall, Penjaringan, Kecamatan Penjaringan, Jkt Utara, Daerah Khusus Ibukota Jakarta, Indonesia","Emporium Pluit Mall, Penjaringan, Jkt Utara",4.6,96,,0882-1181-0287,,"gym, health, point_of_interest, establishment",True,Central_Jakarta_Core,premium gym,True,2025-08-05T10:03:06.774679
ChIJOZiG_uLzaS4RNONXGKw-x1o,FIAS GYM,Affluence_Proxy,Premium_Fitness,-6.2191981,106.8296721,"Jl. Denpasar No.7, Kuningan, Karet Kuningan, Kecamatan Setiabudi, Kota Jakarta Selatan, Daerah Khusus Ibukota Jakarta 12940, Indonesia","Jl. Denpasar No.7, Kuningan, Karet Kuningan, Kota Jakarta Selatan",4.6,20,https://www.instagram.com/fias_gym/?igshid=NzZlODBkYWE4Ng==&utm_source=qr,0815-1995-5913,,"gym, health, point_of_interest, establishment",True,Central_Jakarta_Core,premium gym,True,2025-08-05T10:03:06.940152
ChIJ96JlEST3aS4RFQZCeMABwhA,K Fitness Cideng,Affluence_Proxy,Premium_Fitness,-6.1766475,106.8119404,"Jl. Cideng Barat No.72ab Lantai 1, Cideng, Kecamatan Gambir, Jakarta, Daerah Khusus Ibukota Jakarta 10150, Indonesia","Jl. Cideng Barat No.72ab Lantai 1, Cideng, Jakarta",4.6,353,http://kfitness.id/,0851-7335-0052,,"gym, health, point_of_interest, establishment",True,Central_Jakarta_Core,premium gym,True,2025-08-05T10:03:07.274791
ChIJo2FAUNn0aS4RLjJBLTJNxYA,Body Fit Station,Affluence_Proxy,Premium_Fitness,-6.1775654,106.8939969,"Jl. Pulo Nangka Tengah Jl. Kayu Putih Raya No.6 8, RT.8/RW.8, Pulo Gadung, Kec. Pulo Gadung, Kota Jakarta Timur, Daerah Khusus Ibukota Jakarta 13210, Indonesia","Jl. Pulo Nangka Tengah Jl. Kayu Putih Raya No.6 8, RT.8/RW.8, Pulo Gadung, Kota Jakarta Timur",4.6,139,https://instagram.com/gymbodyfitstation,0878-8000-8577,,"gym, point_of_interest, health, establishment",True,Central_Jakarta_Core,premium gym,True,2025-08-05T10:03:09.753067
ChIJa6KL8XP1aS4ROcI-QXFy4pw,Levs Gym,Affluence_Proxy,Premium_Fitness,-6.179973899999999,106.8500566,"15, Jl. Sumbadra No.26, RT.15/RW.8, Tanah Tinggi, Kec. Johar Baru, Kota Jakarta Pusat, Daerah Khusus Ibukota Jakarta 10540, Indonesia","15, Jl. Sumbadra No.26, RT.15/RW.8, Tanah Tinggi, Kota Jakarta Pusat",4.6,61,,0858-7167-8790,,"gym, health, point_of_interest, establishment",True,Central_Jakarta_Core,celebrity fitness,True,2025-08-05T10:03:15.765973
ChIJI4RBoxT1aS4RhWK_qrJ0QV8,Willfitness Cempaka Putih,Affluence_Proxy,Premium_Fitness,-6.1736939,106.8578036,"RT.1/RW.1, Cempaka Baru, Kemayoran, Central Jakarta City, Jakarta 10640, Indonesia","Ruko Cemp. Indah, RT.1/RW.1, Cemp. Baru, Kota Jakarta Pusat",4.5,157,https://bit.ly/willfitness,0811-1994-9777,,"gym, health, point_of_interest, establishment",True,Central_Jakarta_Core,premium gym,True,2025-08-05T10:03:07.106983
ChIJGzDu0dfzaS4Rrui-_3PtaKQ,FIT HUB ITC Kuningan,Affluence_Proxy,Premium_Fitness,-6.2233611,106.8259742,"ITC Kuningan Lantai 5 Jembatan 1, Jl. Prof. DR. Satrio, Kuningan, Karet Kuningan, Kecamatan Setiabudi, Kota Jakarta Selatan, Daerah Khusus Ibukota Jakarta 12940, Indonesia","ITC Kuningan Lantai 5 Jembatan 1, Jl. Prof. DR. Satrio, Kuningan, Karet Kuningan, Kota Jakarta Selatan",4.5,160,https://fithub.id/free-trial/v3/fit-hub-itc-kuningan/?source=Google%20Maps,0851-6702-8659,,"gym, point_of_interest, health, establishment",True,Central_Jakarta_Core,premium gym,True,2025-08-05T10:03:08.259962
ChIJjzDn_DTzaS4RNE8WSzYSDKQ,FIT HUB Tebet,Affluence_Proxy,Premium_Fitness,-6.233256799999999,106.8446373,"Jl. Prof. DR. Soepomo No.30, RT.13/RW.2, Tebet Bar., Kec. Tebet, Kota Jakarta Selatan, Daerah Khusus Ibukota Jakarta 12810, Indonesia","Jl. Prof. DR. Soepomo No.30, RT.13/RW.2, Tebet Bar., Kota Jakarta Selatan",4.5,428,https://fithub.id/free-trial/v3/fit-hub-tebet/?source=Google%20Maps,0821-6229-4473,,"gym, point_of_interest, health, establishment",True,Central_Jakarta_Core,premium gym,True,2025-08-05T10:03:08.923244
ChIJ0SLD9O7zaS4RR8FKL4UkyRk,KYZN Kuningan,Affluence_Proxy,Premium_Fitness,-6.220660899999999,106.8180451,"Jl. Karet Sawah No.216, RT.4/RW.4, Karet Semanggi, Kecamatan Setiabudi, Kota Jakarta Selatan, Daerah Khusus Ibukota Jakarta 12930, Indonesia","Jl. Karet Sawah No.216, RT.4/RW.4, Karet Semanggi, Kota Jakarta Selatan",4.5,645,https://bio.kyzn.life/kuningan,0811-8601-000,,"gym, doctor, point_of_interest, health, establishment",True,Central_Jakarta_Core,premium gym,True,2025-08-05T10:03:10.263937
ChIJnZm2uNP3aS4Rwcl7LuQJDz8,FIT HUB Kemanggisan,Affluence_Proxy,Premium_Fitness,-6.198826,106.7812859,"Jl. Raya Kb. Jeruk No.15 ABC, RT.7/RW.5, Kb. Jeruk, Kec. Kb. Jeruk, Kota Jakarta Barat, Daerah Khusus Ibukota Jakarta 11530, Indonesia","Jl. Raya Kb. Jeruk No.15 ABC, RT.7/RW.5, Kb. Jeruk, Kota Jakarta Barat",4.5,200,https://fithub.id/free-trial/v3/fit-hub-Kemanggisan?source=GoogleMaps,0857-7926-8137,,"gym, point_of_interest, health, establishment",True,Central_Jakarta_Core,premium gym,True,2025-08-05T10:03:10.751831
ChIJe0hk2DP1aS4RDFsINhJGVnw,Celebrity Fitness,Affluence_Proxy,Premium_Fitness,-6.1460291,106.8925681,"Jl. Artha Gading Sel. No.1 18, RT.18/RW.8, Klp. Gading Bar., Kec. Klp. Gading, Jkt Utara, Daerah Khusus Ibukota Jakarta 14240, Indonesia","Mall Artha Gading, Jl. Artha Gading Sel. No.1 18, RT.18/RW.8, Klp. Gading Bar., Jkt Utara",4.5,355,,(021) 45864508,,"gym, health, point_of_interest, establishment",True,Central_Jakarta_Core,celebrity fitness,True,2025-08-05T10:03:15.103109
ChIJCV5O3if2aS4RqUckXi7uLhk,Jaya Fitness Center (JFC),Affluence_Proxy,Premium_Fitness,-6.1383212,106.7826798,"Jl. Teluk Gong Raya Ruko Teluk Mas No.18i 6, RT.6/RW.9, Pejagalan, Kecamatan Penjaringan, Jkt Utara, Daerah Khusus Ibukota Jakarta 14450, Indonesia","Komp. Ruko Telukmas, Jl. Teluk Gong Raya Ruko Teluk Mas No.18i 6, RT.6/RW.9, Pejagalan, Jkt Utara",4.5,77,,0858-1440-9045,,"gym, point_of_interest, health, establishment",True,Central_Jakarta_Core,celebrity fitness,True,2025-08-05T10:03:16.973768
ChIJ34Tflar1aS4Rsf-lQsIKTak,PT Equinox Teknologi Indonesia,Affluence_Proxy,Premium_Fitness,-6.210522,106.819205,"Sahid Sudirman Centre, Jl. Jenderal Sudirman No.Kav 86 56th Floor, RT.14/RW.11, Karet Tengsin, Kecamatan Tanah Abang, Kota Jakarta Pusat, Daerah Khusus Ibukota Jakarta 10220, Indonesia","Sahid Sudirman Centre, Jl. Jenderal Sudirman No.Kav 86 56th Floor, RT.14/RW.11, Karet Tengsin, Kota Jakarta Pusat",4.5,12,https://www.equinox-technology.com/,0895-3655-56935,,"furniture_store, home_goods_store, point_of_interest, store, establishment",True,Central_Jakarta_Core,equinox,True,2025-08-05T10:03:18.702642
ChIJjy54ICr1aS4RJDwwSXUYprg,Anytime Fitness Menara Cakrawala,Affluence_Proxy,Premium_Fitness,-6.186479599999999,106.8236478,"Jl. M.H. Thamrin No.9, RT.2/RW.1, Kb. Sirih, Kec. Menteng, Kota Jakarta Pusat, Daerah Khusus Ibukota Jakarta 10340, Indonesia","Menara Cakrawala, Jl. M.H. Thamrin No.9, RT.2/RW.1, Kb. Sirih, Kota Jakarta Pusat",4.4,113,https://www.anytimefitness.com/locations/id/jakarta/,0812-8853-2760,,"gym, health, point_of_interest, establishment",True,Central_Jakarta_Core,premium gym,True,2025-08-05T10:03:03.556617
ChIJuwI24D71aS4RQlJu9qQrZPM,FIT HUB Sunter Altira Business Park,Affluence_Proxy,Premium_Fitness,-6.152045999999999,106.8860895,"Altira Business Park, Lantai 2 Jakarta No.9 Blok A01-A03, RT.9/RW.11, Sunter Jaya, Kec. Tj. Priok, Jkt Utara, Daerah Khusus Ibukota Jakarta 14350, Indonesia","Altira Business Park, Lantai 2 Jakarta No.9 Blok A01-A03, RT.9/RW.11, Sunter Jaya, Jkt Utara",4.4,408,https://fithub.id/free-trial/v3/fit-hub-sunter-altira?source=GoogleMaps,0878-7078-5283,,"gym, health, point_of_interest, establishment",True,Central_Jakarta_Core,premium gym,True,2025-08-05T10:03:04.058581
ChIJT_fxaAD1aS4RWxfSoja2Kp4,Anytime Fitness Thamrin,Affluence_Proxy,Premium_Fitness,-6.199142,106.822631,"Chubb Square, Thamrin Nine, Jl. MH Thamrin No.10 9th Floor, Kb. Melati, Kecamatan Tanah Abang, Kota Jakarta Pusat, Daerah Khusus Ibukota Jakarta 12130, Indonesia","Chubb Square, Thamrin Nine, Jl. MH Thamrin No.10 9th Floor, Kebon Melati, Central Jakarta City",4.4,124,,,,"gym, health, point_of_interest, establishment",True,Central_Jakarta_Core,premium gym,True,2025-08-05T10:03:04.707211
ChIJkYF-QUYdai4Ru5K5xNk71qE,Osbond Gym Pluit Village Mall,Affluence_Proxy,Premium_Fitness,-6.116420499999999,106.7885078,"Pluit Village Mall, Jl. Pluit Indah No.12 Lt. 1, RT.6/RW.4, Pluit, Kecamatan Penjaringan, Jkt Utara, Daerah Khusus Ibukota Jakarta 14450, Indonesia","Pluit Village Mall, Jl. Pluit Indah No.12 Lt. 1, RT.6/RW.4, Pluit, Jkt Utara",4.4,38,https://bit.ly/osbondwebsite,0852-8236-6061,,"gym, health, point_of_interest, establishment",True,Central_Jakarta_Core,premium gym,True,2025-08-05T10:03:04.868057
ChIJF4eTgn7zaS4RJUsi5ZIaSpc,Willfitness Pancoran,Affluence_Proxy,Premium_Fitness,-6.240647399999999,106.8410201,"Bina Setra, Menara Bidakara 2, Jl. Gatot Subroto No.71, RT.8/RW.8, Menteng Dalam, Kec. Tebet, Kota Jakarta Selatan, Daerah Khusus Ibukota Jakarta 12870, Indonesia","Bina Setra, Bidakara Tower 2, Bidakara Medical Center, Jl. Gatot Subroto No.71, RT.8/RW.8, Menteng Dalam, Kota Jakarta Selatan",4.4,220,http://willfitness.id/,,,"gym, health, point_of_interest, establishment",True,Central_Jakarta_Core,premium gym,True,2025-08-05T10:03:05.390634
ChIJrTA_5qz1aS4R-cmqIJxkcuI,Osbond Gym Cempaka Putih,Affluence_Proxy,Premium_Fitness,-6.1738927,106.8554894,"Jl. Letjen Suprapto No.28, RT.14/RW.3, Harapan Mulya, Kec. Kemayoran, Kota Jakarta Pusat, Daerah Khusus Ibukota Jakarta 10640, Indonesia","Jl. Letjen Suprapto No.28, RT.14/RW.3, Harapan Mulya, Kota Jakarta Pusat",4.4,724,,0811-8771-058,,"gym, health, point_of_interest, establishment",True,Central_Jakarta_Core,premium gym,True,2025-08-05T10:03:06.446189
ChIJ8xzjZCb0aS4RtEvLct_moKE,Jakarta City Center Pilates,Affluence_Proxy,Premium_Fitness,-6.1989823,106.8226302,"CHUBB Square, Podium - Thamrin Nine Upper Ground Floor unit H, Jl. M.H. Thamrin No. 10, RT.8/RW.4, Gondangdia, Kec. Menteng, Kota Jakarta Pusat, Daerah Khusus Ibukota Jakarta 10230, Indonesia","CHUBB Square, Podium - Thamrin Nine Upper Ground Floor unit H, Jl. M.H. Thamrin No. 10, RT.8/RW.4, Gondangdia, Kota Jakarta Pusat",4.4,14,http://jakartacitycentrepilates.com/,(021) 29290840,,"gym, health, point_of_interest, establishment",True,Central_Jakarta_Core,premium gym,True,2025-08-05T10:03:07.759253
ChIJBePHxQf3aS4RDw_4NIzLLp0,FIT HUB Grogol,Affluence_Proxy,Premium_Fitness,-6.1649629,106.7895263,"Jl. Makaliwe Raya No.42, RW.5, Grogol, Kec. Grogol petamburan, Kota Jakarta Barat, Daerah Khusus Ibukota Jakarta 11450, Indonesia","Jl. Makaliwe Raya No.42, RW.5, Grogol, Kota Jakarta Barat",4.4,257,https://fithub.id/free-trial/v3/fit-hub-Grogol?source=GoogleMaps,0822-2191-2086,,"gym, point_of_interest, health, establishment",True,Central_Jakarta_Core,premium gym,True,2025-08-05T10:03:09.429570
ChIJfZEn4n71aS4RXi9_VOE34J0,Celebrity Fitness - Food Centrum,Affluence_Proxy,Premium_Fitness,-6.1423146,106.8547111,"Food Centrum, RUKAN PURI MUTIARA, Jl. Griya Utama Lantai 2 Unit L2-3, RT.2/RW.5, Sunter Agung, Kec. Tj. Priok, Jkt Utara, Daerah Khusus Ibukota Jakarta 14350, Indonesia","RUKAN PURI MUTIARA, Food Centrum, Jl. Griya Utama Lantai 2 Unit L2-3, RT.2/RW.5, Sunter Agung, Jkt Utara",4.4,184,https://www.celebrityfitness.co.id/clubs/food-centrum?utm_source=gmb&utm_medium=organic&utm_campaign=gmb-club-landing-page,(021) 30514233,,"gym, health, point_of_interest, establishment",True,Central_Jakarta_Core,celebrity fitness,True,2025-08-05T10:03:15.274683
ChIJVwG2dQP0aS4R80NmOqfPMaE,Prudential Tower Building,Affluence_Proxy,Premium_Fitness,-6.209683099999999,106.822564,"2, Prudential Tower M Floor Jalan Jendral Sudirman Kav. 79 Setiabudi, RT.2/RW.2, Kuningan, Setia Budi, Kecamatan Setiabudi, Kota Jakarta Selatan, Daerah Khusus Ibukota Jakarta 12910, Indonesia","2, Prudential Tower M Floor Jalan Jendral Sudirman Kav. 79 Setiabudi, RT.2/RW.2, Kuningan, Setia Budi, Kota Jakarta Selatan",4.4,1767,http://www.celebrityfitness.com/,(021) 22057757,,"point_of_interest, establishment",True,Central_Jakarta_Core,celebrity fitness,True,2025-08-05T10:03:15.601591
ChIJxRK_i8_1aS4RsWwjZufwuXQ,Menara Jakarta at Kemayoran,Affluence_Proxy,Premium_Fitness,-6.150524900000001,106.8466082,"KOMPLEK, Jl. Kota Baru Bandar Kemayoran No.C-8, South Gunung Sahari, Kemayoran, Central Jakarta City, Jakarta 10610, Indonesia","KOMPLEK, Jl. Kota Baru Bandar Kemayoran No.C-8, South Gunung Sahari, Central Jakarta City",4.4,146,http://www.menarajakarta.co.id/,(021) 29288000,,"point_of_interest, establishment",True,Central_Jakarta_Core,equinox,True,2025-08-05T10:03:19.028097
ChIJGcAGsxn2aS4Rl0ywBj_c6uc,SOULRAVE ENTERTAINMENT,Affluence_Proxy,Premium_Fitness,-6.144959,106.7973341,"Jalan Angke Jaya XIII GG Samarasa 1C Dalam No.42, RT.13/RW.5, Angke, Tambora, RT.1/RW.4, Angke, Kec. Tambora, Kota Jakarta Barat, Daerah Khusus Ibukota Jakarta 11330, Indonesia","Jalan Angke Jaya XIII GG Samarasa 1C Dalam No.42, RT.13/RW.5, Angke, Tambora, RT.1/RW.4, Angke, Kota Jakarta Barat",4.4,8,https://youtube.com/@soulrave_ent,,,"point_of_interest, establishment",True,Central_Jakarta_Core,equinox,,2025-08-05T10:03:19.656598
ChIJYVyuDLj3aS4R85lYz7OHHM0,FIT HUB Greenville,Affluence_Proxy,Premium_Fitness,-6.1694502,106.773397,"Jl. Green Ville Blk. BJ-BK No.5, RT.8/RW.14, Duri Kepa, Kec. Kb. Jeruk, Kota Jakarta Barat, Daerah Khusus Ibukota Jakarta 11510, Indonesia","Jl. Green Ville Blk. BJ-BK No.5, RT.8/RW.14, Duri Kepa, Kota Jakarta Barat",4.3,360,https://fithub.id/free-trial/v3/fit-hub-Greenville?source=GoogleMaps,0851-6285-5137,,"gym, health, point_of_interest, establishment",True,Central_Jakarta_Core,premium gym,True,2025-08-05T10:03:02.709248
ChIJyxj4pG7xaS4RT_ubz6Qlx7w,Osbond Gym Blok M Square,Affluence_Proxy,Premium_Fitness,-6.2445432,106.8006869,"Bl. M Square, Jl. Melawai 5 lantai 3a, RT.3/RW.1, Melawai, Kec. Kby. Baru, Kota Jakarta Selatan, Daerah Khusus Ibukota Jakarta 12160, Indonesia","Bl. M Square, Jl. Melawai 5 lantai 3a, RT.3/RW.1, Melawai, Kota Jakarta Selatan",4.3,234,,0811-1520-588,,"gym, health, point_of_interest, establishment",True,Central_Jakarta_Core,premium gym,True,2025-08-05T10:03:03.055769
ChIJj3TRp_XxaS4RmHlOFnGimOw,FIT HUB Blok M,Affluence_Proxy,Premium_Fitness,-6.2453458,106.7983674,"Jalan Panglima Polim Raya Blok M.3 No. 1 dan 2, RT.1/RW.2, Melawai, Kec. Kby. Baru, Kota Jakarta Selatan, Daerah Khusus Ibukota Jakarta 12130, Indonesia","Jalan Panglima Polim Raya Blok M.3 No. 1 dan 2, RT.1/RW.2, Melawai",4.3,407,https://fithub.id/free-trial/v3/fit-hub-blok-m/?source=Google%20Maps,0851-7979-6240,,"gym, health, point_of_interest, establishment",True,Central_Jakarta_Core,premium gym,True,2025-08-05T10:03:04.221709
ChIJt1n0w2v1aS4RRogqs543BmE,Osbond Gym Metro Sunter Plaza,Affluence_Proxy,Premium_Fitness,-6.1370007,106.8729682,"Metro Sunter Plaza, Jl. Danau Sunter Utara No.10 Lt. 3, RT.10/RW.4, Papanggo, Kec. Tj. Priok, Jkt Utara, Daerah Khusus Ibukota Jakarta 14350, Indonesia","Metro Sunter Plaza, Jl. Danau Sunter Utara No.10 Lt. 3, RT.10/RW.4, Papanggo, Jkt Utara",4.3,23,https://bit.ly/osbondwebsite,0822-4964-7936,,"gym, health, point_of_interest, establishment",True,Central_Jakarta_Core,premium gym,True,2025-08-05T10:03:06.094139
ChIJlSqAbA72aS4RJ-cOPQBub-8,Yakuza Gym,Affluence_Proxy,Premium_Fitness,-6.1505221,106.8076757,"No. Jl. K.H. Moh. Mansyur No.2II, RT.10/RW.5, Tanah Sereal, Kec. Tambora, Kota Jakarta Barat, Daerah Khusus Ibukota Jakarta 11260, Indonesia","No. Jl. K.H. Moh. Mansyur No.2II, RT.10/RW.5, Tanah Sereal, Kota Jakarta Barat",4.3,296,,(021) 22637866,,"gym, health, point_of_interest, establishment",True,Central_Jakarta_Core,premium gym,True,2025-08-05T10:03:08.087560
ChIJYaudW07xaS4Rw0htkYoY8Jw,Celebrity Fitness - FX,Affluence_Proxy,Premium_Fitness,-6.2247403,106.8037374,"FX Sudirman, 4th Floor, Jl. Jenderal Sudirman Jl. Pintu Satu Senayan, Gelora, Kecamatan Tanah Abang, Jakarta, Daerah Khusus Ibukota Jakarta 10270, Indonesia","FX Sudirman, 4th Floor, Jl. Jenderal Sudirman Jl. Pintu Satu Senayan, Jakarta",4.3,301,https://www.celebrityfitness.co.id/clubs/fx?utm_source=gmb&utm_medium=organic&utm_campaign=gmb-club-landing-page,(021) 30514233,,"gym, point_of_interest, health, establishment",True,Central_Jakarta_Core,premium gym,True,2025-08-05T10:03:08.590240
ChIJaVVVFRT2aS4RcSRATcnNBSU,Osbond Gym Season City,Affluence_Proxy,Premium_Fitness,-6.153412299999999,106.796084,"Seasons City Mall, Jl. Prof. Dr. Latumeten No.33 13, RT.13/RW.1, Jemb. Besi, Kec. Tambora, Kota Jakarta Barat, Daerah Khusus Ibukota Jakarta 11320, Indonesia","Seasons City Mall, Jl. Prof. Dr. Latumeten No.33 Blok A No 26, RT.13/RW.1, Jembatan Besi, West Jakarta City",4.3,263,https://bit.ly/osbondwebsite,0811-8285-058,,"gym, point_of_interest, health, establishment",True,Central_Jakarta_Core,premium gym,True,2025-08-05T10:03:09.593221
ChIJRfp5uhDxaS4RUaMk8Qh7-pg,Celebrity Fitness - Gandaria City Mall,Affluence_Proxy,Premium_Fitness,-6.2448717,106.7829296,"Gandaria City, Jl. Sultan Iskandar Muda, Kby. Lama Utara, Kec. Kby. Lama, Kota Jakarta Selatan, Daerah Khusus Ibukota Jakarta 12240, Indonesia","Gandaria City, Jl. Sultan Iskandar Muda, Kby. Lama Utara, Kota Jakarta Selatan",4.3,271,https://www.celebrityfitness.co.id/clubs/gandaria-city-mall?utm_source=gmb&utm_medium=organic&utm_campaign=gmb-club-landing-page,(021) 30514233,,"gym, health, point_of_interest, establishment",True,Central_Jakarta_Core,celebrity fitness,True,2025-08-05T10:03:14.933053
ChIJqWL2qsP2aS4RgNzYt8rsdAs,Emporium Gym Square 3,Affluence_Proxy,Premium_Fitness,-6.2007403,106.7854647,"2 No.11, RT.2/RW.11, Palmerah, Kec. Palmerah, Kota Jakarta Barat, Daerah Khusus Ibukota Jakarta 11480, Indonesia","2 No.11, RT.2/RW.11, Palmerah, Kota Jakarta Barat",4.3,40,,,,"gym, point_of_interest, health, establishment",True,Central_Jakarta_Core,celebrity fitness,True,2025-08-05T10:03:16.486940
ChIJ332iPa31aS4RGGGXVbTE9PU,The Gym Pacific Century Place,Affluence_Proxy,Premium_Fitness,-6.2277647,106.8081952,"Pacific Century Place Tower, Level 7 SCBD Lot 10, Jl. Jenderal Sudirman No.Kav.52-53, RT.5/RW.3, Senayan, Kec. Kby. Baru, Kota Jakarta Selatan, Daerah Khusus Ibukota Jakarta 12190, Indonesia","Pacific Century Place Tower, Level 7 SCBD Lot 10, Jl. Jenderal Sudirman No.Kav.52-53, RT.5/RW.3, Senayan, Kota Jakarta Selatan",4.3,35,http://pcp-jakarta.com/leisure/,(021) 50805828,,"gym, point_of_interest, health, establishment",True,Central_Jakarta_Core,celebrity fitness,True,2025-08-05T10:03:16.647586
ChIJVVVVEff1aS4Rff6HdbFky9I,Osbond Gym Mangga Dua Square,Affluence_Proxy,Premium_Fitness,-6.138077399999999,106.8318132,"Mangga Dua Square, Jl. Gn. Sahari No.1 11, RT.11/RW.6, Ancol, Kec. Pademangan, Jkt Utara, Daerah Khusus Ibukota Jakarta 14420, Indonesia","Mangga Dua Square, Jl. Gn. Sahari No.1 11, RT.11/RW.6, Ancol, Jkt Utara",4.2,250,https://bit.ly/osbondwebsite,0811-1505-806,,"gym, point_of_interest, health, establishment",True,Central_Jakarta_Core,premium gym,True,2025-08-05T10:03:10.426436
ChIJ2zRFLbb1aS4RGwYJfaoGKjg,Anytime Fitness Citra Xperience,Affluence_Proxy,Premium_Fitness,-6.1588059,106.8524808,"RT.13/RW.6, Kebon Kosong, Kemayoran, Central Jakarta City, Jakarta 10630, Indonesia","RT.13/RW.6, Kebon Kosong, Central Jakarta City",4.2,133,https://www.anytimefitness.id/gyms/id-0005/citra-towers-kemayoran-jakarta/,0821-2286-5390,,"gym, point_of_interest, health, establishment",True,Central_Jakarta_Core,premium gym,True,2025-08-05T10:03:10.915026
ChIJo2sk4ozzaS4RPyAovy8xlYo,Celebrity Fitness - Kota Kasablanka,Affluence_Proxy,Premium_Fitness,-6.2241946,106.8433185,"Kota Kasablanka, 1st Floor Kasablanka Raya Kav 88 Jakarta Selatan Indonesia 12870, RT.4/RW.14, Menteng Dalam, Kec. Tebet, Kota Jakarta Selatan, Daerah Khusus Ibukota Jakarta 12870, Indonesia","Kota Kasablanka, 1st Floor Kasablanka Raya Kav 88 Jakarta Selatan Indonesia 12870, RT.4/RW.14, Menteng Dalam, Kota Jakarta Selatan",4.2,351,https://www.celebrityfitness.co.id/clubs/kota-kasablanka?utm_source=gmb&utm_medium=organic&utm_campaign=gmb-club-landing-page,(021) 30514233,,"gym, health, point_of_interest, establishment",True,Central_Jakarta_Core,celebrity fitness,True,2025-08-05T10:03:14.768565
ChIJ81q-5172aS4RKed1Mp9Ypvk,Celebrity Fitness,Affluence_Proxy,Premium_Fitness,-6.176433599999999,106.7917467,"Central Park Mal Lt. L3 -113, Jl. Letjen. S. Parman No.28, Tomang, Grogol petamburan, RT.12/RW.6, Tj. Duren Sel., Kec. Grogol petamburan, Kota Jakarta Barat, Daerah Khusus Ibukota Jakarta 11470, Indonesia","Central Park Mal Lt. L3 -113, Jl. Letjen. S. Parman No.28, Tomang, Grogol petamburan, RT.12/RW.6, Tj. Duren Sel., Kota Jakarta Barat",4.2,253,http://www.celebrityfitness.co.id/,(021) 30514233,,"gym, health, point_of_interest, establishment",True,Central_Jakarta_Core,celebrity fitness,True,2025-08-05T10:03:15.436516
ChIJI61NiEz1aS4RMLWgNNKwphQ,Anytime Fitness Sunter Mall,Affluence_Proxy,Premium_Fitness,-6.1379816,106.8708469,"Sunter Mall, Jl. Danau Sunter Utara No.Kav. II, RT.14/RW.13, Sunter Agung, Kec. Tj. Priok, Jkt Utara, Daerah Khusus Ibukota Jakarta 14350, Indonesia","Sunter Mall, Jl. Danau Sunter Utara No.Kav. II, RT.14/RW.13, Sunter Agung, Jkt Utara",4.2,55,https://www.anytimefitness.id/gyms/id-0006/sunter-mall-jakarta-14350/,0813-8101-6568,,"gym, school, point_of_interest, health, establishment",True,Central_Jakarta_Core,celebrity fitness,True,2025-08-05T10:03:16.807189
ChIJ2ef9007xaS4RyElHa-J1niI,X2,Affluence_Proxy,Premium_Fitness,-6.2255626,106.7991608,"Plaza Senayan Lantai 4 & 5, Jalan Asia Afrika No. 8, RT.1/RW.3, Gelora, Kecamatan Tanah Abang, Kota Jakarta Pusat, Daerah Khusus Ibukota Jakarta 12220, Indonesia","Plaza Senayan Lantai 4 & 5, Jalan Asia Afrika No. 8, RT.1/RW.3, Gelora, Kota Jakarta Pusat",4.2,214,,(021) 5725560,$$$,"night_club, point_of_interest, establishment",True,Central_Jakarta_Core,equinox,True,2025-08-05T10:03:19.188570
ChIJ_U45uffzaS4RoHzABhwgJCc,Equinox Publishing,Affluence_Proxy,Premium_Fitness,-6.226469,106.832382,"Cyber 2 Tower 18F, Jl. HR Rasuna Said Blok X-5/13, RT.7/RW.2, Kuningan, East Kuningan, Setiabudi, South Jakarta City, Jakarta 12950, Indonesia","Cyber 2 Tower 18F, Jl. HR Rasuna Said Blok X-5/13, RT.7/RW.2, Kuningan, East Kuningan, South Jakarta City",4,1,http://www.equinoxpublishing.com/,(021) 57998989,,"point_of_interest, establishment",True,Central_Jakarta_Core,equinox,True,2025-08-05T10:03:18.863414
ChIJV4XaG8X3aS4RraBYAQfI04k,Anytime Fitness Taman Anggrek,Affluence_Proxy,Premium_Fitness,-6.181223,106.7919297,"Hublife Taman Anggrek, Jl. Letjen S. Parman No.Kav.21, Tj. Duren Sel., Kec. Grogol petamburan, Kota Jakarta Barat, Daerah Khusus Ibukota Jakarta 11470, Indonesia","Hublife Taman Anggrek, Jl. Letjen S. Parman No.Kav.21, Tj. Duren Sel., Kota Jakarta Barat",3.9,179,https://www.anytimefitness.id/membership-inquiry/?club=ID-0009,0812-8037-5698,,"gym, health, point_of_interest, establishment",True,Central_Jakarta_Core,celebrity fitness,True,2025-08-05T10:03:16.091114
ChIJOza0pgP0aS4Rj_vD1GPQlE8,PT. Exertainment Indonesia,Affluence_Proxy,Premium_Fitness,-6.2100478,106.8218345,"QRQC+XPP, Jl. Jenderal Sudirman, RT.10/RW.1, Kuningan, Karet, Kecamatan Setiabudi, Kota Jakarta Selatan, Daerah Khusus Ibukota Jakarta 12920, Indonesia","QRQC+XPP, Jl. Jenderal Sudirman, RT.10/RW.1, Kuningan, Karet, Kota Jakarta Selatan",3.4,20,,(021) 5704348,,"point_of_interest, establishment",True,Central_Jakarta_Core,celebrity fitness,True,2025-08-05T10:03:15.925132
ChIJ81f4_RX1aS4RX12NiRFKut0,Menara Jakarta Tower Equinox,Affluence_Proxy,Premium_Fitness,-6.1502478,106.8475413,"KOMPLEK, Gn. Sahari Sel., Kec. Kemayoran, Kota Jakarta Pusat, Daerah Khusus Ibukota Jakarta 10610, Indonesia","KOMPLEK, South Gunung Sahari, Central Jakarta City",3.4,34,http://instagram.com/menarajakartaasg,,,"point_of_interest, establishment",True,Central_Jakarta_Core,equinox,,2025-08-05T10:03:18.546991
ChIJGXrRFd_zaS4RvK1MONKaq7g,Red & White Farmers Market Epicentrum Mall,Affluence_Proxy,Premium_Supermarket,-6.2181858,106.8350963,"Epicentrum Mall, Jl. H. R. Rasuna Said Lt. B1, RT.2/RW.5, Karet Kuningan, Kecamatan Setiabudi, Kota Jakarta Selatan, Daerah Khusus Ibukota Jakarta 12940, Indonesia","Epicentrum Mall, Jl. H. R. Rasuna Said Lt. B1, RT.2/RW.5, Karet Kuningan, Kota Jakarta Selatan",,0,https://redandwhiteshops.com/liquor-store/jakarta/red-white-farmers-market-epicentrum-mall/,0811-1910-1868,,"liquor_store, point_of_interest, store, establishment",True,Central_Jakarta_Core,Farmers Market,True,2025-08-05T10:02:27.372830
ChIJna_qERjxaS4RFxgepRVsJTc,Pelintasan KA Kebayoran Lama,Affluence_Proxy,Premium_Supermarket,-6.239837199999999,106.7814268,"RW No.1, RT.1/RW.1, Kby. Lama Utara, Kec. Kby. Lama, Kota Jakarta Selatan, Daerah Khusus Ibukota Jakarta 12240, Indonesia","RW No.1, RT.1/RW.1, North Kebayoran Lama, South Jakarta City",5,3,,,,"point_of_interest, establishment",True,Central_Jakarta_Core,Farmers Market,True,2025-08-05T10:02:27.542963
ChIJAWClF8kdai4Rksywf6cH-Rw,Mitra Segari,Affluence_Proxy,Premium_Supermarket,-6.120894499999999,106.8071909,"Apartemen Pluit Sea View Tower Maldives Blok C Lantai GF Nomor 2, RT.5/RW.3, Penjaringan, Kecamatan Penjaringan, Jkt Utara, Daerah Khusus Ibukota Jakarta 14440, Indonesia","Apartemen Pluit Sea View Tower Maldives Blok C Lantai GF Nomor 2, RT.5/RW.3, Penjaringan, Jkt Utara",5,1,,0821-1197-8196,,"point_of_interest, food, establishment",True,Central_Jakarta_Core,Farmers Market,True,2025-08-05T10:02:27.734221
ChIJPSrFeC73aS4RlYyTOcEP2FI,Kebon pare,Affluence_Proxy,Premium_Supermarket,-6.138991,106.7581965,"VQ65+C74, RT.2/RW.7, Kapuk, Cengkareng, West Jakarta City, Jakarta 11720, Indonesia","VQ65+C74, RT.2/RW.7, Kapuk, West Jakarta City",5,3,,,,"point_of_interest, establishment",True,Central_Jakarta_Core,Farmers Market,True,2025-08-05T10:02:27.894826
ChIJ19R0PAD1aS4R9NccAw_Aam0,Farmers Market (Ex Giant) Mediterania Palace,Affluence_Proxy,Premium_Supermarket,-6.155328099999999,106.8528815,"RVV3+R5V Kebon Kosong, Kemayoran RT.13, RW.6, Kebon Kosong, Kemayoran, Central Jakarta City, Jakarta 10630, Indonesia","RVV3+R5V Kebon Kosong, Kemayoran RT.13, RW.6, Kebon Kosong, Central Jakarta City",4.7,6,,,,"supermarket, grocery_or_supermarket, food, point_of_interest, store, establishment",True,Central_Jakarta_Core,Farmers Market,True,2025-08-05T10:02:25.560839
ChIJwYoYJyPxaS4RMiZZflAjdcQ,Pusat Pisang Pasar Kebayoran Lama,Affluence_Proxy,Premium_Supermarket,-6.236287,106.781966,"Jl. Kramat No.3 3, RT.3/RW.1, Kby. Lama Utara, Kec. Kby. Lama, Kota Jakarta Selatan, Daerah Khusus Ibukota Jakarta 12220, Indonesia","Jl. Kramat No.3 3, RT.3/RW.1, Kby. Lama Utara, Kota Jakarta Selatan",4.7,44,,0855-3689-6860,,"point_of_interest, establishment",True,Central_Jakarta_Core,Farmers Market,True,2025-08-05T10:02:26.068070
ChIJwWDLDp_2aS4RXig_0RM80lM,"IPasar Indonesia, PT",Affluence_Proxy,Premium_Supermarket,-6.1963978,106.8146913,"Graha Selaras, Jl. K.H. Mas Mansyur No.5 Lantai II, Nomor 59, RT.5/RW.9, Kb. Melati, Kecamatan Tanah Abang, Kota Jakarta Pusat, Daerah Khusus Ibukota Jakarta 10230, Indonesia","Graha Selaras, Jl. K.H. Mas Mansyur No.5 Lantai II, Nomor 59, RT.5/RW.9, Kb. Melati, Kota Jakarta Pusat",4.7,3,,(021) 31909100,,"point_of_interest, establishment",True,Central_Jakarta_Core,Farmers Market,True,2025-08-05T10:02:28.053950
ChIJvw8IfvHzaS4RKcAnEqM8HgA,Squatting Market,Affluence_Proxy,Premium_Supermarket,-6.2289801,106.8415036,"Jl. Peningkatan II No.27 9, RT.9/RW.3, Menteng Dalam, Kec. Tebet, Kota Jakarta Selatan, Daerah Khusus Ibukota Jakarta 12870, Indonesia","Jl. Peningkatan II No.27 9, RT.9/RW.3, Menteng Dalam, Kota Jakarta Selatan",4.6,96,,,,"point_of_interest, establishment",True,Central_Jakarta_Core,Farmers Market,True,2025-08-05T10:02:28.221964
ChIJe-U6vLfzaS4Rl6_2xnjcYpk,Farmers 99 Market,Affluence_Proxy,Premium_Supermarket,-6.248520099999999,106.8432874,"L'avenue Residence, Jl. KH. Guru Amin No.Kav. 16 7, RT.7/RW.9, Pancoran, Kec. Pancoran, Kota Jakarta Selatan, Daerah Khusus Ibukota Jakarta 12780, Indonesia","L'avenue Residence, Jl. KH. Guru Amin No.Kav. 16 7, RT.7/RW.9, Pancoran, Kota Jakarta Selatan",4.5,56,,,,"supermarket, grocery_or_supermarket, food, point_of_interest, store, establishment",True,Central_Jakarta_Core,Farmers Market,True,2025-08-05T10:02:25.392524
ChIJC89Pd6D1aS4RZZKizJqY-6A,Serdang Market,Affluence_Proxy,Premium_Supermarket,-6.156605799999999,106.8646028,"RVV7+9R5, Jl. Kp. Irian 2, RT.10/RW.11, Serdang, Kec. Kemayoran, Kota Jakarta Pusat, Daerah Khusus Ibukota Jakarta 10650, Indonesia","RVV7+9R5 Ps. Sergang, Jl. Kp. Irian 2, RT.10/RW.11, Serdang, Kota Jakarta Pusat",4.5,2811,,,,"point_of_interest, establishment",True,Central_Jakarta_Core,Farmers Market,True,2025-08-05T10:02:25.730886
ChIJqUJkPIcdai4R8wKiiOeD41Y,Red & White Farmers Market Baywalk Mall Pluit,Affluence_Proxy,Premium_Supermarket,-6.1105187,106.7795513,"Baywalk Mall, Jl. Pluit Karang Ayu Barat Utara No.B1, RT.20/RW.2, Pluit, Kecamatan Penjaringan, Jkt Utara, Daerah Khusus Ibukota Jakarta 14450, Indonesia","Baywalk Mall, Jl. Pluit Karang Ayu Barat Utara No.B1, RT.20/RW.2, Pluit, Jkt Utara",4.5,2,https://redandwhiteshops.com/liquor-store/jakarta/red-white-farmers-market-baywalk-mall-pluit/,0811-1910-1869,,"liquor_store, point_of_interest, store, food, establishment",True,Central_Jakarta_Core,Farmers Market,True,2025-08-05T10:02:26.742094
ChIJq6pq-6f1aS4RNXIlCJbfhj8,Sumur Batu Market,Affluence_Proxy,Premium_Supermarket,-6.1644517,106.8643999,"RVP7+6Q6, Jl. Serdang Raya, RT.1/RW.1, Sumur Batu, Kec. Kemayoran, Kota Jakarta Pusat, Daerah Khusus Ibukota Jakarta 10640, Indonesia","RVP7+6Q6, Jl. Serdang Raya, RT.1/RW.1, Sumur Batu, Kota Jakarta Pusat",4.5,1909,https://pasarjaya.co.id/pasar/pasar-sumur-batu,,,"shopping_mall, point_of_interest, establishment",True,Central_Jakarta_Core,Farmers Market,True,2025-08-05T10:02:27.233098
ChIJ08qY38f2aS4Ra-KVwNRT5Q0,Lokbin Palmerah (Pasar Pisang),Affluence_Proxy,Premium_Supermarket,-6.2079813,106.7927171,"Jl. Palmerah Barat No.4 1, RT.1/RW.2, Gelora, Kecamatan Tanah Abang, Kota Jakarta Pusat, Daerah Khusus Ibukota Jakarta 10270, Indonesia","Ps. Pisang, Jl. Palmerah Barat No.4 1, RT.1/RW.2, Gelora, Kota Jakarta Pusat",4.4,962,,,,"point_of_interest, establishment",True,Central_Jakarta_Core,Farmers Market,True,2025-08-05T10:02:25.226955
ChIJ9dqQnInzaS4R02ZmRvaB2-g,Pasar Kaget,Affluence_Proxy,Premium_Supermarket,-6.2189125,106.8482447,"Jl. Sawo IV No.3, RT.2/RW.8, Manggarai Sel., Kec. Tebet, Kota Jakarta Selatan, Daerah Khusus Ibukota Jakarta 12860, Indonesia","Jl. Sawo IV No.3, RT.2/RW.8, Manggarai Sel., Kota Jakarta Selatan",4.4,197,,,,"point_of_interest, establishment",True,Central_Jakarta_Core,Farmers Market,True,2025-08-05T10:02:25.896926
ChIJU00epRD2aS4RZHrAYeeKqNc,Lapak Pisang Angke,Affluence_Proxy,Premium_Supermarket,-6.1471025,106.8010528,"Jl. Stasiun Angke No.3, RT.1/RW.5, Jemb. Lima, Kec. Tambora, Kota Jakarta Barat, Daerah Khusus Ibukota Jakarta 11250, Indonesia","Jl. Stasiun Angke No.3, RT.1/RW.5, Jemb. Lima, Kota Jakarta Barat",4.4,289,,0818-0606-2205,,"point_of_interest, establishment",True,Central_Jakarta_Core,Farmers Market,True,2025-08-05T10:02:26.235162
ChIJE01b5e72aS4ReB09XkxL8Q8,Lumbung Bhumi (Lumbung Bumi) Jakarta,Affluence_Proxy,Premium_Supermarket,-6.1915059,106.786419,"Jl. Kemanggisan Utama VII No.67, RT.4/RW.7, Kemanggisan, Kec. Palmerah, Kota Jakarta Barat, Daerah Khusus Ibukota Jakarta 11480, Indonesia","Jl. Kemanggisan Utama VII No.67, RT.4/RW.7, Kemanggisan, Kota Jakarta Barat",4.4,75,https://www.lumbungbhumi.com/,0857-7527-4221,,"point_of_interest, establishment",True,Central_Jakarta_Core,Farmers Market,True,2025-08-05T10:02:26.900316
ChIJlWORnKT1aS4R0OpSVxPyvbk,Kemayoran Market,Affluence_Proxy,Premium_Supermarket,-6.1610343,106.8550864,"Utan Panjang, Kemayoran, Central Jakarta City, Jakarta, Indonesia","Utan Panjang, Central Jakarta City",4.3,4771,,,,"point_of_interest, store, establishment",True,Central_Jakarta_Core,Farmers Market,True,2025-08-05T10:02:24.889693
ChIJAwBRgCYeai4R1ST2ued_m2c,Belek Market,Affluence_Proxy,Premium_Supermarket,-6.1316563,106.8520332,"Jalan Ancol selatan RT.12/RW.1, Sunter Agung, Tanjung Priok, RT.12/RW.1, RT.12/RW.1, Sunter Agung, Kec. Tj. Priok, Jkt Utara, Daerah Khusus Ibukota Jakarta 14350, Indonesia","Jalan Ancol selatan RT.12/RW.1, Sunter Agung, Tanjung Priok, RT.12/RW.1, RT.12/RW.1, Sunter Agung, Jkt Utara",4.2,980,,,,"point_of_interest, establishment",True,Central_Jakarta_Core,Farmers Market,True,2025-08-05T10:02:26.421921
ChIJbxSc38f2aS4RiEg_BcHKaWE,Palmerah Market,Affluence_Proxy,Premium_Supermarket,-6.2083165,106.7961438,"Jl. Palmerah Timur Jl. Palmerah Sel. No.4, RT.4/RW.2, Gelora, Kecamatan Tanah Abang, Kota Jakarta Pusat, Daerah Khusus Ibukota Jakarta 10350, Indonesia","Ps. Palmerah, Jl. Palmerah Timur Jl. Palmerah Sel. No.4, RT.4/RW.2, Gelora, Kota Jakarta Pusat",4.2,5118,https://pasarjaya.co.id/pasar/pasar-palmerah,,,"point_of_interest, establishment",True,Central_Jakarta_Core,Farmers Market,True,2025-08-05T10:02:26.585708
ChIJ-7wnICf1aS4RJRGl4LZID7E,TAMAN PURI ABADI,Affluence_Proxy,Premium_Supermarket,-6.171666,106.8960143,"SUPPLIER SAYURAN TAMAN PURI ABADI Perum Gading pandawa jl.pelepah hijau 3 blok TL 2 nomor 22, RT.1/RW.1, Klp. Gading Tim., Kec. Klp. Gading, Jkt Utara, Daerah Khusus Ibukota Jakarta 14240, Indonesia","SUPPLIER SAYURAN TAMAN PURI ABADI Perum Gading pandawa jl.pelepah hijau 3 blok TL 2 nomor 22, RT.1/RW.1, Klp. Gading Tim., Jkt Utara",4.2,84,,0895-1795-1790,,"point_of_interest, establishment",True,Central_Jakarta_Core,Farmers Market,True,2025-08-05T10:02:27.070923
ChIJo6Vk0fH3aS4Rrn-VToMmzfo,Farmers Market - Citraland Grogol (Mall Ciputra Jakarta),Affluence_Proxy,Premium_Supermarket,-6.1679938,106.7871669,"Jl. Daan Mogot I, RT.11/RW.1, Tj. Duren Utara, Kec. Grogol petamburan, Kota Jakarta Barat, Daerah Khusus Ibukota Jakarta 11470, Indonesia","Jl. Daan Mogot I, RT.11/RW.1, Tj. Duren Utara, Kota Jakarta Barat",4.1,65,https://www.blibli.com/merchant/farmers-market-mall-ciputra-grogol-official-store/FAM-70135,0882-9816-3548,,"supermarket, grocery_or_supermarket, food, point_of_interest, store, establishment",True,Central_Jakarta_Core,Farmers Market,True,2025-08-05T10:02:24.719861
ChIJC5-Jl4v3aS4RnoJpV4DAnk4,"Stella Vet Tanah Abang ( Dokter Hewan, Grooming & Petshop )",Competitor,Clinic+Grooming,-6.2061932,106.8100716,"Jl. Bendungan Hilir No.148, Bend. Hilir, Kecamatan Tanah Abang, Kota Jakarta Pusat, Daerah Khusus Ibukota Jakarta 10210, Indonesia","Jl. Bendungan Hilir No.148, Bend. Hilir, Kota Jakarta Pusat",4.9,99,,0857-9848-1180,,"veterinary_care, point_of_interest, establishment",True,Central_Jakarta_Core,dokter hewan,True,2025-08-05T10:01:44.690089
ChIJfdwT_A31aS4RME0I0bOzCfQ,"Stella Vet Kemayoran ( Dokter Hewan, Grooming & Petshop )",Competitor,Clinic+Grooming,-6.159134,106.8672695,"Jl. Sumur Batu Raya No.7, Sumur Batu, Kec. Kemayoran, Kota Jakarta Pusat, Daerah Khusus Ibukota Jakarta 10640, Indonesia","Jl. Sumur Batu Raya No.7, Sumur Batu, Kota Jakarta Pusat",4.6,132,,0815-8595-9309,,"veterinary_care, point_of_interest, establishment",True,Central_Jakarta_Core,dokter hewan,True,2025-08-05T10:01:45.883086
ChIJl-mCbaL3aS4R9xvcdDevByg,Dokter Hewan City Pet Care,Competitor,Clinic_Only,-6.1518412,106.795262,"Jl. Jembatan Besi Raya No.39 C-D, Jemb. Besi, Kec. Tambora, Kota Jakarta Barat, Daerah Khusus Ibukota Jakarta 11320, Indonesia","Jl. Jembatan Besi Raya No.39 C-D, Jemb. Besi, Kota Jakarta Barat",5,110,http://www.urbanvet.id/,0878-4413-0808,,"veterinary_care, point_of_interest, establishment",True,Central_Jakarta_Core,dokter hewan,True,2025-08-05T10:01:44.531655
ChIJ8a3fQkDzaS4RkL3ipcXr474,PetMed - Peterinary Medical Centre,Competitor,Clinic_Only,-6.2285981,106.8547342,"Jl. Tebet Raya No.49 D, Tebet Tim., Kec. Tebet, Kota Jakarta Selatan, Daerah Khusus Ibukota Jakarta 12810, Indonesia","Jl. Tebet Raya No.49 D, Tebet Tim., Kota Jakarta Selatan",5,32,https://petmed.id/,0812-8888-6315,,"veterinary_care, store, health, point_of_interest, food, establishment",True,Central_Jakarta_Core,dokter hewan,True,2025-08-05T10:01:45.719059
ChIJzY3Av1SLaS4RKp8pjJ5DJAQ,Cattleya Pet Point (praktek dokter hewan) - khusus kucing,Competitor,Clinic_Only,-6.2182802,106.8783136,"Jl. Bekasi Timur VI No.22, Cipinang Besar Utara, Kecamatan Jatinegara, Kota Jakarta Timur, Daerah Khusus Ibukota Jakarta 13410, Indonesia","Jl. Bekasi Timur VI No.22, Cipinang Besar Utara, Kota Jakarta Timur",5,18,,0812-1863-9828,,"veterinary_care, point_of_interest, establishment",True,Central_Jakarta_Core,dokter hewan,True,2025-08-05T10:01:46.049857
ChIJDZJ4vyD1aS4RHy06QCnURpw,SJP + VET. Praktek Dokter Hewan,Competitor,Clinic_Only,-6.1570744,106.8920738,"Blok E12, Jl. Pulau Pelangi No.5 15, RT.15/RW.3, Klp. Gading Bar., Kec. Klp. Gading, Jkt Utara, Daerah Khusus Ibukota Jakarta 14240, Indonesia","Blok E12, Jl. Pulau Pelangi No.5 15, RT.15/RW.3, Klp. Gading Bar., Jkt Utara",5,70,,0813-1781-1425,,"veterinary_care, point_of_interest, establishment",True,Central_Jakarta_Core,dokter hewan,True,2025-08-05T10:01:46.784081
ChIJ52DPvVSPaS4R3OWAV0zDKu0,Natha Petxotic (Petshop & Dokter Hewan),Competitor,Clinic_Only,-6.212055899999999,106.8894912,"Samping Zain Laundry), ruko warna kuning, Jl. Bekasi Timur Raya No.191A, RT.5/RW.8, Cipinang, Kec. Pulo Gadung, Kota Jakarta Timur, Daerah Khusus Ibukota Jakarta 13240, Indonesia","Samping Zain Laundry), ruko warna kuning, Jl. Bekasi Timur Raya No.191A, RT.5/RW.8, Cipinang, Kota Jakarta Timur",5,29,https://shopee.co.id/npscipinang,0852-1715-8217,,"veterinary_care, food, point_of_interest, health, store, establishment",True,Central_Jakarta_Core,dokter hewan,True,2025-08-05T10:01:47.476873
ChIJqdX5MCXzaS4RcFpZ6gPGlGA,Praktek Dokter Hewan dok.Rin | Home Visit,Competitor,Clinic_Only,-6.2469581,106.8516319,"Jl. Pengadegan Utara No.6, RT.9/RW.6, Cikoko, Kec. Pancoran, Kota Jakarta Selatan, Daerah Khusus Ibukota Jakarta 12770, Indonesia","Jl. Pengadegan Utara No.6, RT.9/RW.6, Cikoko, Kota Jakarta Selatan",4.9,139,,0822-2651-3431,,"veterinary_care, point_of_interest, establishment",True,Central_Jakarta_Core,dokter hewan,True,2025-08-05T10:01:45.383929
ChIJdQSNE1u4om8R4pyV_AeFH08,MEDIVET Clinic Kelapa Gading,Competitor,Clinic_Only,-6.151739,106.8895484,"Ruko Inkopal, Jl. Boulevard Bar. Raya No.37 Blok C No. 36, Klp. Gading Bar., Kec. Klp. Gading, Jkt Utara, Daerah Khusus Ibukota Jakarta 14240, Indonesia","Ruko Inkopal, Jl. Boulevard Bar. Raya No.37 Blok C No. 36, Klp. Gading Bar., Jkt Utara",4.9,73,http://linktr.ee/medivet.pet,0811-1998-6100,,"veterinary_care, point_of_interest, establishment",True,Central_Jakarta_Core,dokter hewan,True,2025-08-05T10:01:46.454908
ChIJWw-RN5D1aS4R1IBvCWpjhQk,Kaki Empat Pet Care,Competitor,Clinic_Only,-6.1408885,106.8410467,"Jl. Pademangan 3 raya Gg. 7 No.23, Pademangan Tim., Kec. Pademangan, Jkt Utara, Daerah Khusus Ibukota Jakarta 14410, Indonesia","Jl. Pademangan 3 raya Gg. 7 No.23, Pademangan Tim., Jkt Utara",4.9,20,,0819-5555-676,,"veterinary_care, point_of_interest, establishment",True,Central_Jakarta_Core,dokter hewan,True,2025-08-05T10:01:47.640403
ChIJJe9WLUTzaS4R7j91KgnvGjw,Dokter hewan dan Pet Shop Meow & Bark Pet Care,Competitor,Clinic_Only,-6.2287083,106.893497,"Jl. Cipinang Muara I No.72, RT.2/RW.3, Cipinang Muara, Kec. Duren Sawit, Kota Jakarta Timur, Daerah Khusus Ibukota Jakarta 13420, Indonesia","Jl. Cipinang Muara I No.72, RT.2/RW.3, Cipinang Muara, Kota Jakarta Timur",4.7,67,https://instagram.com/meowandbark.id?utm_medium=copy_link,0851-5709-9708,,"pet_store, veterinary_care, store, point_of_interest, establishment",True,Central_Jakarta_Core,dokter hewan,True,2025-08-05T10:01:44.013000
ChIJIR6sHZfzaS4RbLnBJdhxN4I,Mon's Pet,Competitor,Clinic_Only,-6.2334767,106.8504502,"Jl. Tebet Barat Raya No.20, RT.7/RW.2, Tebet Bar., Kec. Tebet, Kota Jakarta Selatan, Daerah Khusus Ibukota Jakarta 12810, Indonesia","Jl. Tebet Barat Raya No.20, RT.7/RW.2, Tebet Bar., Kota Jakarta Selatan",4.7,596,,0882-1208-9107,,"veterinary_care, point_of_interest, establishment",True,Central_Jakarta_Core,dokter hewan,True,2025-08-05T10:01:44.348507
ChIJoVLlEmnxaS4R0U1ZbC2ZwqM,Petlove Center,Competitor,Clinic_Only,-6.2417748,106.8017523,"Jl. Falatehan I No.30, Melawai, Kec. Kby. Baru, Kota Jakarta Selatan, Daerah Khusus Ibukota Jakarta 12160, Indonesia","Jl. Falatehan I No.30, Melawai, Kota Jakarta Selatan",4.7,450,http://www.petlovecenter.com/,0811-812-515,,"veterinary_care, store, point_of_interest, establishment",True,Central_Jakarta_Core,dokter hewan,True,2025-08-05T10:01:45.221730
ChIJEyAwQdT3aS4RedAtTeOauxA,VVIP Care - Dokter Hewan Vina & Friends,Competitor,Clinic_Only,-6.167643099999999,106.8081616,"Jl. Biak No.25, Cideng, Kecamatan Gambir, Kota Jakarta Pusat, Daerah Khusus Ibukota Jakarta 10150, Indonesia","Jl. Biak No.25, Cideng, Kota Jakarta Pusat",4.7,59,https://vvipcare.id/,0819-3855-5599,,"veterinary_care, point_of_interest, establishment",True,Central_Jakarta_Core,dokter hewan,True,2025-08-05T10:01:47.311490
ChIJyXUvD6jxaS4RBI6ntiwcG-0,Mody Pet's Club & RnD Clinic,Competitor,Clinic_Only,-6.2379162,106.7781865,"Kebayoran Icon Ruko, Jl. Ciledug Raya No.35 A&B, RT.5/RW.2, Cipulir, Kec. Kby. Lama, Kota Jakarta Selatan, Daerah Khusus Ibukota Jakarta 12230, Indonesia","Kebayoran Icon Ruko, Jl. Ciledug Raya No.35 A&B, RT.5/RW.2, Cipulir, Kota Jakarta Selatan",4.7,58,https://myvets.id/,(021) 27088006,,"veterinary_care, point_of_interest, establishment",True,Central_Jakarta_Core,veterinary clinic,True,2025-08-05T10:01:48.396018
ChIJdQb55AP1aS4R0Q0oUH1dKIs,Jakarta Vet Cempaka Putih,Competitor,Clinic_Only,-6.1704158,106.8714706,"Jl. Cempaka Putih Tengah XXX No.5a 9, RT.9/RW.7, Cemp. Putih Tim., Kec. Cemp. Putih, Kota Jakarta Pusat, Daerah Khusus Ibukota Jakarta 10510, Indonesia","Jl. Cempaka Putih Tengah XXX No.5a 9, RT.9/RW.7, Cemp. Putih Tim., Kota Jakarta Pusat",4.6,488,http://www.jakartavet.com/index.php?page=maplocation,(021) 4241880,,"veterinary_care, point_of_interest, establishment",True,Central_Jakarta_Core,dokter hewan,True,2025-08-05T10:01:44.179466
ChIJMUIKZKr1aS4Rku6HlSKoy4c,Dokter Hewan Gloriouz Pet,Competitor,Clinic_Only,-6.172401799999999,106.8643249,"Rukan Indra Sentra, Jl. Letjen Suprapto No.60 Unit W, Cemp. Putih Bar., Kec. Cemp. Putih, Kota Jakarta Pusat, Daerah Khusus Ibukota Jakarta 10520, Indonesia","Rukan Indra Sentra, Jl. Letjen Suprapto No.60 Unit W, Cemp. Putih Bar., Kota Jakarta Pusat",4.6,365,https://www.instagram.com/drh.gloriouzpet/,0878-4288-6262,,"veterinary_care, point_of_interest, establishment",True,Central_Jakarta_Core,dokter hewan,True,2025-08-05T10:01:45.040209
ChIJq_ZzBXH3aS4RIYVpWapbYTU,Andista Animal Care CP Meruya 1 | Dokter Hewan Terdekat | Dokter Hewan Srengseng | Dokter Hewan Puri Kembangan,Competitor,Clinic_Only,-6.1971311,106.7546317,"Jl. Meruya Utara Raya No.N0. 38, RT.3/RW.8, Srengseng, Kec. Kembangan, Kota Jakarta Barat, Daerah Khusus Ibukota Jakarta 11620, Indonesia","Jl. Meruya Utara Raya No.N0. 38, RT.3/RW.8, Srengseng, Kota Jakarta Barat",4.5,91,http://andistaanimalcare.com/,0852-8222-0744,,"veterinary_care, health, point_of_interest, establishment",True,Central_Jakarta_Core,dokter hewan,True,2025-08-05T10:01:46.221504
ChIJa69R33D2aS4RTApZxbsTSxs,Rahardja Gunawan,Competitor,Clinic_Only,-6.1641563,106.8108489,"Jl. Cideng Timur No.11H, Kota Jakarta Pusat, Daerah, Khusus Ibu, RT.5/RW.4, Petojo Utara, Kecamatan Gambir, Jakarta, Daerah Khusus Ibukota Jakarta 10130, Indonesia","Khusus Ibu, Jl. Cideng Timur No.11H, Kota Jakarta Pusat, Daerah, RT.5/RW.4, Petojo Utara, Jakarta",4.5,148,http://www.jakartavet.com/,(021) 22631591,,"veterinary_care, point_of_interest, establishment",True,Central_Jakarta_Core,dokter hewan,True,2025-08-05T10:01:46.964965
ChIJNz6UYBn3aS4R6JX1K8ywGEM,R PET CARE TANJUNG DUREN,Competitor,Clinic_Only,-6.1737344,106.780375,"Blok G3/1B, R Pet Care, Jl. Tj. Duren Barat I, RT.14/RW.3, North Tanjung Duren, Grogol petamburan, West Jakarta City, Jakarta 11470, Indonesia","R Pet Care, Blok G3/1B, Jl. Tj. Duren Barat I, RT.14/RW.3, North Tanjung Duren, West Jakarta City",4.4,560,,0856-9300-1200,,"veterinary_care, point_of_interest, establishment",True,Central_Jakarta_Core,dokter hewan,True,2025-08-05T10:01:43.832914
ChIJZ1VVVaj3aS4RrFlMYIA3pVQ,Klinik Hewan PDHB drh Cucu kartini Green Garden,Competitor,Clinic_Only,-6.1663013,106.7625856,"Jl.Panjang Ruko Green Garden Bok I-9 no 35, RT.1/RW.4, Kedoya Utara, Kec. Kb. Jeruk, Kota Jakarta Barat, Daerah Khusus Ibukota Jakarta 11520, Indonesia","Jl.Panjang Ruko Green Garden Bok I-9 no 35, RT.1/RW.4, Kedoya Utara, Kota Jakarta Barat",4.4,666,http://pdhbvet.com,(021) 58302919,,"veterinary_care, point_of_interest, establishment",True,Central_Jakarta_Core,dokter hewan,True,2025-08-05T10:01:44.869424
ChIJFzTk-eL0aS4RBO_YhFRoERk,PRAKTEK DOKTER HEWAN PIARA PULOMAS,Competitor,Clinic_Only,-6.1750812,106.8818658,"Jl. Pulomas I No.46, RT.8/RW.12, Kayu Putih, Kec. Pulo Gadung, Kota Jakarta Timur, Daerah Khusus Ibukota Jakarta 13210, Indonesia","Jl. Pulomas I No.46, RT.8/RW.12, Kayu Putih, Kota Jakarta Timur",4.4,261,http://www.piaravet.com/,0818-0809-6129,,"veterinary_care, doctor, health, point_of_interest, establishment",True,Central_Jakarta_Core,dokter hewan,True,2025-08-05T10:01:45.554671
ChIJk_fL-vjxaS4Rc8TiGU23GUw,Dokter Hewan Panggilan Jakarta (Drh Putu Pande S),Competitor,Clinic_Only,-6.238610599999999,106.7750622,"Jl. SD Cipulir No.58, Cipulir, Kec. Kby. Lama, Kota Jakarta Selatan, Daerah Khusus Ibukota Jakarta 12230, Indonesia","Jl. SD Cipulir No.58, Cipulir, Kota Jakarta Selatan",4.4,44,,0812-8324-7160,,"veterinary_care, point_of_interest, establishment",True,Central_Jakarta_Core,dokter hewan,True,2025-08-05T10:01:47.135037
ChIJETn0Z2Edai4R5eKw58Iilh4,DOKTER HEWAN DEWI,Competitor,Clinic_Only,-6.1192907,106.7820568,"Jl. Pluit Karang Indah X, RT.4/RW.12, Pluit, Kecamatan Penjaringan, Jkt Utara, Daerah Khusus Ibukota Jakarta 14450, Indonesia","Jl. Pluit Karang Indah X, RT.4/RW.12, Pluit, Jkt Utara",3.4,71,,0812-9016-0200,,"veterinary_care, point_of_interest, establishment",True,Central_Jakarta_Core,dokter hewan,True,2025-08-05T10:01:46.620404
ChIJ8aGWqjLzaS4R2DzqP67RBZc,Arkha exopets jakarta,Competitor,Grooming_Salon,-6.2172924,106.824716,"Jl. Anggrek 3 No.21, RT.010 RW002/RW.2, Kuningan, Karet Kuningan, Jakarta, Kota Jakarta Selatan, Daerah Khusus Ibukota Jakarta 12940, Indonesia","Jl. Anggrek 3 No.21, RT.010 RW002/RW.2, Kuningan, Karet Kuningan, Kota Jakarta Selatan",,0,,0817-7233-9373,,"point_of_interest, establishment",True,Central_Jakarta_Core,pet salon,True,2025-08-05T10:01:55.890144
ChIJYQljEwD1aS4RjNVDnpc8kq8,Pawsome - Mobile Pet Grooming,Competitor,Grooming_Salon,-6.1695677,106.8982341,"RVJX+57H, RW.1, East Kelapa Gading, Kelapa Gading, North Jakarta City, Jakarta 14240, Indonesia","RVJX+57H, RW.1, East Kelapa Gading, North Jakarta City",5,8,,0818-0609-0589,,"point_of_interest, establishment",True,Central_Jakarta_Core,pet salon,True,2025-08-05T10:01:56.558203
ChIJcZGmHeP3aS4RD5uXusO3Pyg,CLEOS GROOMING,Competitor,Grooming_Salon,-6.2053452,106.8177027,"Apartemen Tower A 35 AH, Sudirman Park, RT.12/RW.11, Karet Tengsin, Kecamatan Tanah Abang, Kota Jakarta Pusat, Daerah Khusus Ibukota Jakarta 10250, Indonesia","Sudirman Park, Apartemen Tower A 35 AH, RT.12/RW.11, Karet Tengsin, Kota Jakarta Pusat",5,1,,0812-8304-7002,,"point_of_interest, establishment",True,Central_Jakarta_Core,grooming kucing,True,2025-08-05T10:02:04.080643
ChIJt3mCawL3aS4RL9gJrIAkzDg,Pocari Cat Grooming,Competitor,Grooming_Salon,-6.2023761,106.7859562,"Rawa Belong Kost 68-69, Rawa Belong No.69, RT.7/RW.10, Palmerah, Kec. Palmerah, Kota Jakarta Barat, Daerah Khusus Ibukota Jakarta 11480, Indonesia","Rawa Belong Kost 68-69, Rawa Belong No.69, RT.7/RW.10, Kota Jakarta Barat",4.8,11,http://pocarigrooming.wordpress.com/,0851-7317-4053,,"point_of_interest, establishment",True,Central_Jakarta_Core,pet salon,True,2025-08-05T10:01:56.218941
ChIJTVsB6b_3aS4Ruhq0o5jFr4M,City Petshop & Grooming,Competitor,Grooming_Salon,-6.1518017,106.7953089,"Jl. Jembatan Besi Raya No.39, RT.10/RW.1, Jemb. Besi, Kec. Tambora, Kota Jakarta Barat, Daerah Khusus Ibukota Jakarta 11320, Indonesia","Jl. Jembatan Besi Raya No.39, RT.10/RW.1, Jemb. Besi, Kota Jakarta Barat",4.8,256,,,,"store, point_of_interest, establishment",True,Central_Jakarta_Core,grooming kucing,True,2025-08-05T10:02:03.437448
ChIJzw7PkGjzaS4R0XC0qw9Q1FU,Obie Petshop,Competitor,Grooming_Salon,-6.2215395,106.8291102,"Pedurenan Masjid 2 Rt.010/04 No.17, Catering H. Ali, RT.10/RW.4, Kuningan, Karet Kuningan, Kecamatan Setiabudi, Kota Jakarta Selatan, Daerah Khusus Ibukota Jakarta 12940, Indonesia","Catering H. Ali, Pedurenan Masjid 2 Rt.010/04 No.17, RT.10/RW.4, Kuningan, Karet Kuningan, Kota Jakarta Selatan",4.8,31,,0815-1716-0777,,"pet_store, store, point_of_interest, establishment",True,Central_Jakarta_Core,grooming kucing,True,2025-08-05T10:02:03.924563
ChIJG7Dh_SbxaS4Rewt-mazpEcE,Rumahkucing,Competitor,Grooming_Salon,-6.229947,106.7718342,"Jl. Panjang Cidodol No.02B 5, RT.5/RW.13, Grogol Sel., Kec. Kby. Lama, Kota Jakarta Selatan, Daerah Khusus Ibukota Jakarta 12220, Indonesia","Jl. Panjang Cidodol No.02B 5, RT.5/RW.13, Grogol Sel., Kota Jakarta Selatan",4.7,168,,0878-7554-1837,,"pet_store, veterinary_care, store, point_of_interest, establishment",True,Central_Jakarta_Core,grooming kucing,True,2025-08-05T10:02:03.270163
ChIJ_0dLVi7zaS4RostqNwPjftg,Siji Petcare (Clinic - Grooming - Pet Hotel - Pet Shop),Competitor,Grooming_Salon,-6.2428588,106.8688149,"Jl. Otista Raya No.42, RT.11/RW.12, Cawang, Kecamatan Jatinegara, Kota Jakarta Timur, Daerah Khusus Ibukota Jakarta 13330, Indonesia","Jl. Otista Raya No.42, RT.11/RW.12, Cawang, Kota Jakarta Timur",4.6,123,https://linktr.ee/sijipetcare,0857-1712-1581,,"point_of_interest, establishment",True,Central_Jakarta_Core,grooming kucing,True,2025-08-05T10:02:03.603995
ChIJX1pWUp_1aS4RWvIZcK8eejI,Nobu petshop(Makanan kucing dan Grooming kucing),Competitor,Grooming_Salon,-6.1966983,106.890745,"Jl. Waru No.2, RW.8, Rawamangun, Kec. Pulo Gadung, Kota Jakarta Timur, Daerah Khusus Ibukota Jakarta 13220, Indonesia","Jl. Waru No.2, RW.8, Rawamangun, Kota Jakarta Timur",4.6,13,,0813-4724-3078,,"store, point_of_interest, establishment",True,Central_Jakarta_Core,grooming kucing,True,2025-08-05T10:02:04.237583
ChIJP9TBMFf3aS4RPOLgV7Gisuk,"Love My Pet Jelambar (petshop,grooming &dokter hewan)",Competitor,Grooming_Salon,-6.160882399999999,106.7856373,"Jl. Hadiah 2 No.17A, RT.3/RW.11, Jelambar, Kec. Grogol petamburan, Kota Jakarta Barat, Daerah Khusus Ibukota Jakarta 11460, Indonesia","Jl. Hadiah 2 No.17A, RT.3/RW.11, Jelambar, Kota Jakarta Barat",4.5,24,,0878-8000-7407,,"pet_store, veterinary_care, store, point_of_interest, establishment",True,Central_Jakarta_Core,pet salon,True,2025-08-05T10:01:55.741115
ChIJn7n-rpD3aS4RGDOvnzMW54g,Happy Pets Land Grooming Salon & Spa,Competitor,Grooming_Salon,-6.2178394,106.758948,"Jl. Joglo Raya No.29, RT.7/RW.3, Srengseng, Kec. Kembangan, Kota Jakarta Barat, Daerah Khusus Ibukota Jakarta 11630, Indonesia","Jl. Joglo Raya No.29, RT.7/RW.3, Srengseng, Kota Jakarta Barat",4.5,289,,0878-8866-1682,,"point_of_interest, establishment",True,Central_Jakarta_Core,pet salon,True,2025-08-05T10:01:56.052309
ChIJS4g5bC8eai4RYm_EgdLZsC8,Joe Pet Shop,Competitor,Grooming_Salon,-6.138046399999999,106.8715947,"jl. Danau Sunter Utara Kav III Blok G7 No 15, Jalan Danau Sunter Utara, Sunter Mall, RT.4/RW.6, Sunter Agung, Jakarta Utara, RT.14/RW.13, Sunter Agung, Kec. Tj. Priok, DKI Jakarta, Daerah Khusus Ibukota Jakarta 14350, Indonesia","jl. Danau Sunter Utara Kav III Blok G7 No 15, Jalan Danau Sunter Utara, Sunter Mall, RT.4/RW.6, Sunter Agung, Jakarta Utara, RT.14/RW.13, Sunter Agung, DKI Jakarta",4.4,166,,(021) 65303267,,"store, point_of_interest, establishment",True,Central_Jakarta_Core,grooming kucing,True,2025-08-05T10:02:03.763349
ChIJVaq9W8f1aS4RjGqk2Dfzius,Newbie Sugar Glider,Competitor,Grooming_Salon,-6.171790499999999,106.8552667,"10, Jl. Harapan Mulia II Gg. L No.8, RT.10/RW.4, Harapan Mulya, Kec. Kemayoran, Kota Jakarta Pusat, Daerah Khusus Ibukota Jakarta 10640, Indonesia","10, Jl. Harapan Mulia II Gg. L No.8, RT.10/RW.4",4.3,16,,0877-2738-3298,,"point_of_interest, establishment",True,Central_Jakarta_Core,pet salon,True,2025-08-05T10:01:56.386103
ChIJMV-KM0T1aS4RHtRi8XY2dn0,Bulu bulu petshop,Competitor,Grooming_Salon,-6.1691169,106.8558896,"Jl. Harapan Mulia XI No.18 13, RT.13/RW.5, Harapan Mulya, Kec. Kemayoran, Kota Jakarta Pusat, Daerah Khusus Ibukota Jakarta 10640, Indonesia","Jl. Harapan Mulia XI No.18 13, RT.13/RW.5, Harapan Mulya, Kota Jakarta Pusat",4.1,26,,0853-5117-1787,,"pet_store, point_of_interest, store, establishment",True,Central_Jakarta_Core,grooming kucing,True,2025-08-05T10:02:04.401512
ChIJrw1kFZP3aS4R0JrPxuLcT54,Pet Mosta,Customer,Pet_Store,-6.1403331,106.799315,"Ruko Permata Kota, Blok A10, RT.10/RW.1, Pejagalan, Kecamatan Penjaringan, Jkt Utara, Daerah Khusus Ibukota Jakarta 14450, Indonesia","Ruko Permata Kota, Blok A10, RT.10/RW.1, Pejagalan, Jkt Utara",,0,,0812-8888-8668,,"pet_store, point_of_interest, store, establishment",True,Central_Jakarta_Core,pet store,True,2025-08-05T10:02:11.862287
ChIJTYI9GAD3aS4RTgcA4xUV9zw,Ben & Button Specialty Pet Shop,Customer,Pet_Store,-6.172942,106.7659776,"Jl. Panjang No.1, RT.19/RW.4, Kedoya Sel., Kec. Kb. Jeruk, Kota Jakarta Barat, Daerah Khusus Ibukota Jakarta 11520, Indonesia","Jl. Panjang No.1, RT.19/RW.4, Kedoya Sel., Kota Jakarta Barat",5,60,,0822-6999-8808,,"pet_store, point_of_interest, store, establishment",True,Central_Jakarta_Core,pet store,True,2025-08-05T10:02:11.056659
ChIJ5zRPIf33aS4RI1tS1X_2zdg,KunoID Pet Supplies,Customer,Pet_Store,-6.162147,106.8014456,"Gg. Setuju No.27, RT.15/RW.8, Duri Pulo, Kecamatan Gambir, Kota Jakarta Pusat, Daerah Khusus Ibukota Jakarta 10140, Indonesia","Gg. Setuju No.27, RT.15/RW.8, Duri Pulo, Kota Jakarta Pusat",5,1,,0896-7474-6121,,"pet_store, point_of_interest, store, establishment",True,Central_Jakarta_Core,pet store,True,2025-08-05T10:02:11.388149
ChIJ-8YvAzz1aS4Rei7eQF9nsQY,Harley Pet Store & Salon,Customer,Pet_Store,-6.1590681,106.8937622,"West Kelapa Gading, Kelapa Gading, North Jakarta City, Jakarta, Indonesia","Kokan Permata Klp. Gading, Klp. Gading Bar., Jkt Utara",5,1,,,,"pet_store, point_of_interest, store, establishment",True,Central_Jakarta_Core,pet store,True,2025-08-05T10:02:11.717194
ChIJuQ5P-cv1aS4Re-P8fXRT0mw,PETKU PETSHOP,Customer,Pet_Store,-6.1995986,106.8822423,"Jl. Rawamangun Muka Timur No.46, Rawamangun, Kec. Pulo Gadung, Kota Jakarta Timur, Daerah Khusus Ibukota Jakarta 13210, Indonesia","Jl. Rawamangun Muka Timur No.46, Rawamangun, Kota Jakarta Timur",5,11,,0818-0250-8880,,"pet_store, store, point_of_interest, establishment",True,Central_Jakarta_Core,petshop,True,2025-08-05T10:02:18.643827
ChIJxfsS-kD1aS4RmuYDjXomXe8,petshop murah,Customer,Pet_Store,-6.1818487,106.8570374,"Jalan johar baru utara v rt 16 rw 03 no 33 Jalan johar baru utara v rt 16 rw 03 no 33, RW.3, Johar Baru, Kec. Johar Baru, Kota Jakarta Pusat, Daerah Khusus Ibukota Jakarta 10550, Indonesia","Jalan johar baru utara v rt 16 rw 03 no 33 Jalan johar baru utara v rt 16 rw 03 no 33, RW.3, Johar Baru, Kota Jakarta Pusat",5,56,,0857-1171-4142,,"pet_store, store, point_of_interest, establishment",True,Central_Jakarta_Core,petshop,True,2025-08-05T10:02:19.306792
ChIJh7knBMTzaS4R7m24rHpGUvA,Paws & Claws Petshop and Care Otista,Customer,Pet_Store,-6.23142,106.8735337,"Jl. Otista III Dalam No.10C, Cipinang Cempedak, Kecamatan Jatinegara, Kota Jakarta Timur, Daerah Khusus Ibukota Jakarta 13340, Indonesia","Jl. Otista III Dalam No.10C, Cipinang Cempedak, Kota Jakarta Timur",5,28,,0811-1009-9997,,"point_of_interest, store, establishment",True,Central_Jakarta_Core,petshop,True,2025-08-05T10:02:20.331012
ChIJNYY9cuX1aS4RX30vZ1_hXdM,Mopaw Petshop,Customer,Pet_Store,-6.1536472,106.8874344,"Jl. Inspeksi Kali Sunter, RT.09 RW04/RW.NO.31, Klp. Gading Bar., Kec. Klp. Gading, Jkt Utara, Daerah Khusus Ibukota Jakarta 14240, Indonesia","Jl. Inspeksi Kali Sunter, RT.09 RW04/RW.NO.31, Klp. Gading Bar., Jkt Utara",5,4,https://wa.me/6281779823300,0817-7982-3300,,"point_of_interest, store, establishment",True,Central_Jakarta_Core,petshop,True,2025-08-05T10:02:20.978972
ChIJ5bsOBw_3aS4Ryr6j7FxNAQ8,Anda Petshop,Customer,Pet_Store,-6.1894072,106.7851465,"Jl. Bakti I No.9A, Kemanggisan, Kec. Palmerah, Kota Jakarta Barat, Daerah Khusus Ibukota Jakarta 11480, Indonesia","Jl. Bakti I No.9A, Kemanggisan, Kota Jakarta Barat",4.8,25,https://www.instagram.com/anda.petshop/profilecard/?igsh=MXRibHYzcXVsbDBwZw==,0858-1111-8962,,"pet_store, store, point_of_interest, establishment",True,Central_Jakarta_Core,petshop,True,2025-08-05T10:02:19.473158
ChIJUyzl2V71aS4RK8h6Em4-kwg,Moro Petshop,Customer,Pet_Store,-6.1850691,106.8598652,"Percetakan Negaranya, Jl. Johar Baru IV No.1A 9, RT.18/RW.5, Johar Baru, Kec. Johar Baru, Kota Jakarta Pusat, Daerah Khusus Ibukota Jakarta 10560, Indonesia","Percetakan Negaranya, Jl. Johar Baru IV No.1A 9, RT.18/RW.5, Johar Baru, Kota Jakarta Pusat",4.8,42,,,,"pet_store, point_of_interest, store, establishment",True,Central_Jakarta_Core,petshop,True,2025-08-05T10:02:19.996224
ChIJjSQq8FH1aS4RSye5ZxQnGSk,Moshi Moshi Pet Shop,Customer,Pet_Store,-6.170461299999999,106.8412875,"Jl. Bangau VII No.92 M, RT.14/RW.8, Gn. Sahari Sel., Kec. Kemayoran, Kota Jakarta Pusat, Daerah Khusus Ibukota Jakarta 10610, Indonesia","Jl. Bangau VII No.92 M, RT.14/RW.8, Gn. Sahari Sel., Kota Jakarta Pusat",4.7,57,,0877-3000-3667,,"pet_store, point_of_interest, store, establishment",True,Central_Jakarta_Core,pet store,True,2025-08-05T10:02:11.229068
